Nombre,Cámara de Comercio,Número de Matrícula,Fecha de Matrícula,Estado de la matrícula,Fecha de renovación,Último año renovado,latitud,longitud,direccion
D1,MEDELLIN PARA ANTIOQUIA,48572302,2009/11/26,CANCELADA,2013/04/02,2013,4.7314337,-74.0501335,"Auto. Norte #149-29, Bogotá, Colombia"
D1,MEDELLIN PARA ANTIOQUIA,49026202,2010/03/09,CANCELADA,2013/04/03,2013,4.7314337,-74.0501335,"Auto. Norte #149-29, Bogotá, Colombia"
D1,MEDELLIN PARA ANTIOQUIA,49026302,2010/03/09,CANCELADA,2013/04/03,2013,4.7314337,-74.0501335,"Auto. Norte #149-29, Bogotá, Colombia"
D1,MEDELLIN PARA ANTIOQUIA,49418802,2010/05/21,CANCELADA,2011/03/30,2011,4.7314337,-74.0501335,"Auto. Norte #149-29, Bogotá, Colombia"
D1 - MINIMERCADO GRANADA,ORIENTE ANTIOQUENO,92450,2015/03/16,ACTIVA,2025/03/19,2025,4.7483594,-74.0487217,"Cra. 47 #167a10, Suba, Bogotá, Cundinamarca, Colombia"
D1 REMEDIOS TRONCAL,MAGDALENA MEDIO,79398,2023/02/10,ACTIVA,2025/03/27,2025,7.028363199999999,-74.6944896,"Cl. 10 #12-01, Remedios, Antioquia, Colombia"
MINI MERCADO D1 ALCALA,ABURRA SUR,158764,2012/12/03,ACTIVA,2025/03/13,2025,4.7196095,-74.0552775,"34, Cra. 49 #134, Suba, Bogotá, Colombia"
MINI MERCADO D1 AVENIDA QUITO,BOGOTA,2284054,2013/01/11,CANCELADA,2016/03/31,2016,4.7498182,-74.05914400000002,"Cl 167 #5844 #58- a, Bogotá, Colombia"
MINI MERCADO D1 AVENIDA ROJAS,BOGOTA,2284053,2013/01/11,CANCELADA,2016/03/31,2016,4.6836065,-74.0914769,"a 69p-59, Cl 72 #69p-1, Bogotá, Colombia"
MINI MERCADO D1 BELEN FATIMA,MEDELLIN PARA ANTIOQUIA,56880302,2014/04/24,ACTIVA,2025/03/21,2025,6.2371922,-75.5854242,"a 32b-71, Cra. 65CC #32b-1, Medellín, Antioquia, Colombia"
MINI MERCADO D1 BELEN LAS MERCEDES,MEDELLIN PARA ANTIOQUIA,54108702,2012/12/28,ACTIVA,2025/03/21,2025,6.2346786,-75.607592,"Cra. 84 #32 45, Medellín, Belén, Medellín, Antioquia, Colombia"
MINI MERCADO D1 BELEN SAN BERNARDO,MEDELLIN PARA ANTIOQUIA,55229502,2013/07/10,ACTIVA,2025/03/21,2025,6.224825900000001,-75.5967833,"Cl. 21 #75107 75- a, Medellín, Belén, Medellín, Antioquia, Colombia"
MINI MERCADO D1 BOLOMBOLO,MEDELLIN PARA ANTIOQUIA,54181402,2013/01/21,ACTIVA,2025/03/21,2025,5.9690886,-75.8372143,"Bolombolo, Venecia, Antioquia, Colombia"
MINI MERCADO D1 CAMPO AMOR,MEDELLIN PARA ANTIOQUIA,55229402,2013/07/10,ACTIVA,2025/03/21,2025,6.2114379,-75.5848646,"Cra. 54 #4-77, Guayabal, Medellín, Guayabal, Medellín, Antioquia, Colombia"
MINI MERCADO D1 CENTRO DE LA MODA,ABURRA SUR,158765,2012/12/03,CANCELADA,2015/03/27,2015,6.189470699999999,-75.5950835,"a 79-53,, Cra. 52D #79-3, Itagüi, Antioquia, Colombia"
MINI MERCADO D1 CHIA 2,BOGOTA,2341391,2013/07/15,CANCELADA,2016/03/31,2016,4.865501800000001,-74.03865429999999,"Av. Pradilla #6-59E, Chía, Cundinamarca, Colombia"
MINI MERCADO D1 CHIA CRA 5,BOGOTA,2264431,2012/10/11,CANCELADA,2018/03/15,2018,4.8550347,-74.0558996,"a 6a-94, Cra. 4 #62, Chía, Cundinamarca, Colombia"
MINI MERCADO D1 CONQUISTADORES,MEDELLIN PARA ANTIOQUIA,57375002,2014/07/16,CANCELADA,2017/03/24,2017,6.242246799999999,-75.5791835,"a 37-67,, Cra. 63 #371, Medellín, Antioquia, Colombia"
MINI MERCADO D1 EL DORADO,ABURRA SUR,164080,2013/07/10,ACTIVA,2025/03/13,2025,4.7084161,-74.13691700000001,"Cl 64d #113-60, Bogotá, Colombia"
MINI MERCADO D1 FUNZA SUR,FACATATIVA,83223,2013/08/02,CANCELADA,2015/03/27,2015,4.7161368,-74.20959479999999,"Cra. 12 # 16 - 53, Funza, Cundinamarca, Colombia"
MINI MERCADO D1 LA CEJA 2,ORIENTE ANTIOQUENO,77792,2012/08/09,ACTIVA,2025/03/19,2025,6.031877199999999,-75.43619170000001,"Cra. 22 #16-04, La Ceja, Antioquia, Colombia"
MINI MERCADO D1 LA MAGNOLIA,ABURRA SUR,158763,2012/12/03,ACTIVA,2025/03/13,2025,6.1753786,-75.5810332,"Tv. 32a Sur #31e20, Zona 9, Envigado, Antioquia, Colombia"
MINI MERCADO D1 LA MILAGROSA,MEDELLIN PARA ANTIOQUIA,54972302,2013/05/28,ACTIVA,2025/03/21,2025,6.237014599999999,-75.5565051,"Cl. 42 #31 50, Buenos Aires, Medellín, Buenos Aires, Medellín, Antioquia, Colombia"
MINI MERCADO D1 LAS COLINITAS,MEDELLIN PARA ANTIOQUIA,54647302,2013/04/02,ACTIVA,2025/03/21,2025,4.7410947,-74.0640511,"Cra. 59 #152B-95 Piso 2, Bogotá, Colombia"
MINI MERCADO D1 LAS MARGARITAS,ABURRA SUR,158413,2012/11/23,ACTIVA,2025/03/13,2025,4.7303669,-74.0410548,"Bogotá, Colombia"
MINI MERCADO D1 LAS VIOLETAS,MEDELLIN PARA ANTIOQUIA,54647602,2013/04/02,ACTIVA,2025/03/21,2025,6.2323538,-75.61348699999999,"Cl. 30c #89-11, Medellín, Belén, Medellín, Antioquia, Colombia"
MINI MERCADO D1 PLATINUM SUPERIOR,MEDELLIN PARA ANTIOQUIA,53875802,2012/10/25,CANCELADA,2013/04/02,2013,4.674615,-74.1207312,"Cra. 85c #25F-13, Fontibón, Bogotá, Colombia"
MINI MERCADO D1 PRADITO,MEDELLIN PARA ANTIOQUIA,54778902,2013/04/23,CANCELADA,2023/03/21,2023,4.7570497,-74.0539646,"Cl. 174a #54C-28, Bogotá, Colombia"
MINI MERCADO D1 SABANETA CES,ABURRA SUR,146525,2011/07/06,ACTIVA,2025/03/13,2025,6.1578341,-75.60399319999999,"Cl. 53C Sur #40-160, Zona 7, Sabaneta, Envigado, Antioquia, Colombia"
MINI MERCADO D1 SABANETA VEGAS,ABURRA SUR,158766,2012/12/03,ACTIVA,2025/03/13,2025,6.155136199999999,-75.611683,"Cl. 62 Sur #44-85, Sabaneta, Antioquia, Colombia"
MINI MERCADO D1 SAN FERNANDO,BOGOTA,2273749,2012/11/14,CANCELADA,2018/03/15,2018,4.676180100000001,-74.0812789,"Cra. 64 #74-2, Bogotá, Colombia"
MINI MERCADO D1 SAN JOAQUIN,MEDELLIN PARA ANTIOQUIA,54107402,2012/12/27,CANCELADA,2018/03/27,2018,4.7483333,-74.0582385,"Cra. 56 #165b-2, Bogotá, Colombia"
MINI MERCADO D1 TITIRIBI,MEDELLIN PARA ANTIOQUIA,54107602,2012/12/27,ACTIVA,2025/03/21,2025,6.063345699999999,-75.79438259999999,"a 21-81,, Cra. 21 #21-1, Titiribi, Titiribí, Antioquia, Colombia"
MINIMERCADO 11 PARQUE BOLIVAR,MEDELLIN PARA ANTIOQUIA,55654502,2013/09/23,ACTIVA,2025/03/21,2025,4.5835188,-74.0924762,"Ac. 11 Sur #11 A-33, Bogotá, Colombia"
MINIMERCADO D 1 EL HUECO,MEDELLIN PARA ANTIOQUIA,53614202,2012/09/07,CANCELADA,2016/03/31,2016,6.2488766,-75.5716365,"Cl. 48 #53-53, La Candelaria, Medellín, La Candelaria, Medellín, Antioquia, Colombia"
MINIMERCADO D1 # 3,ABURRA SUR,136975,2010/03/24,CANCELADA,2013/03/22,2013,,,
MINIMERCADO D1 AGUADAS,MANIZALES,201482,2019/07/05,ACTIVA,2025/03/14,2025,5.613380200000001,-75.4573154,"Cra. 6 #6-19, Aguadas, Caldas, Colombia"
MINIMERCADO D1 AJIZAL,ABURRA SUR,195367,2016/12/14,ACTIVA,2025/03/13,2025,6.1909623,-75.6022498,"a 57-388,, Cl. 76 #57-72, Itagüi, Antioquia, Colombia"
MINIMERCADO D1 AMAGA 1,MEDELLIN PARA ANTIOQUIA,58208302,2014/12/16,ACTIVA,2025/03/21,2025,6.034876400000001,-75.7021656,"Cra. 48 #45-100, Amaga, Amagá, Antioquia, Colombia"
MINIMERCADO D1 AMAGA 2,MEDELLIN PARA ANTIOQUIA,53256602,2012/07/05,ACTIVA,2025/03/21,2025,6.040212599999999,-75.703476,"Cl. 50, Amaga, Amagá, Antioquia, Colombia"
MINIMERCADO D1 ANCON,ABURRA SUR,192807,2016/08/23,CANCELADA,2021/03/03,2021,4.449663399999999,-75.2336593,"Cl. 16a #10-40, Ibagué, Tolima, Colombia"
MINIMERCADO D1 ANDES,MEDELLIN PARA ANTIOQUIA,64701502,2017/11/17,ACTIVA,2025/03/21,2025,4.687455100000001,-74.0669734,"Cl. 98a #60-92, Bogotá, Colombia"
MINIMERCADO D1 ANDES 2,MEDELLIN PARA ANTIOQUIA,66548502,2018/08/29,ACTIVA,2025/03/21,2025,5.6583613,-75.8791911,"Andes, Antioquia, Colombia"
MINIMERCADO D1 ASDESILLAS,ABURRA SUR,151392,2012/03/01,ACTIVA,2025/03/13,2025,4.7199366,-74.0799954,"Cl. 128b #79a, Bogotá, Colombia"
MINIMERCADO D1 BARICHARA,MEDELLIN PARA ANTIOQUIA,68882602,2019/08/20,ACTIVA,2025/03/21,2025,6.6354903,-73.22212680000001,"Cra. 7 #6-89, Barichara, Santander, Colombia"
MINIMERCADO D1 BARRIO TRIANA,ABURRA SUR,211626,2018/07/23,ACTIVA,2025/03/13,2025,6.1698492,-75.63764429999999,"San Gabriel, Itagüi, Antioquia, Colombia"
MINIMERCADO D1 BARRIO TRINIDAD,MEDELLIN PARA ANTIOQUIA,49985702,2010/09/23,ACTIVA,2025/03/21,2025,6.2251851,-75.5868181,"Cl. 25 #65F-63, Guayabal, Medellín, Guayabal, Medellín, Antioquia, Colombia"
MINIMERCADO D1 BELEN,MEDELLIN PARA ANTIOQUIA,48572402,2009/11/26,ACTIVA,2025/03/21,2025,4.5899917,-74.0724973,"Cl. 6 #0-44, este, Bogotá, Colombia"
MINIMERCADO D1 BELEN ALABAMA,MEDELLIN PARA ANTIOQUIA,67867002,2019/03/21,CANCELADA,2022/03/14,2022,6.2334041,-75.589513,"Cra. 69 #30a-93, Medellín, Belén, Medellín, Antioquia, Colombia"
MINIMERCADO D1 BELEN ALMENDROS,MEDELLIN PARA ANTIOQUIA,50317702,2010/12/16,ACTIVA,2025/03/21,2025,6.238788,-75.5958698,"Av. 33 #75c-109, Medellín, Belén, Medellín, Antioquia, Colombia"
MINIMERCADO D1 BELEN ALPES PLAZA,MEDELLIN PARA ANTIOQUIA,50120502,2010/10/21,ACTIVA,2025/03/21,2025,6.231725399999999,-75.60321309999999,"Av. Universidad de Medellín, Medellín, Belén, Medellín, Antioquia, Colombia"
MINIMERCADO D1 BELEN CAFETERO,MEDELLIN PARA ANTIOQUIA,70243502,2020/05/18,ACTIVA,2025/03/21,2025,6.2388733,-75.58615259999999,"Cl. 32F #65d-90, Medellín, Belén, Medellín, Antioquia, Colombia"
MINIMERCADO D1 BELEN GRANADA,MEDELLIN PARA ANTIOQUIA,55866102,2013/10/31,ACTIVA,2025/03/21,2025,6.230727,-75.592674,"Cra. 72 #29-1 29-107 a, Medellín, Belén, Medellín, Antioquia, Colombia"
MINIMERCADO D1 BELEN LA 76,MEDELLIN PARA ANTIOQUIA,66548602,2018/08/29,ACTIVA,2025/03/21,2025,6.2275429,-75.5964679,"Cra. 76 #25-2 a 25-56, Medellín, Belén, Medellín, Antioquia, Colombia"
MINIMERCADO D1 BELEN RINCON,MEDELLIN PARA ANTIOQUIA,62332502,2016/11/22,ACTIVA,2025/03/21,2025,6.213209699999999,-75.601796,"Cra. 78b #2a-52, Medellín, Belén, Medellín, Antioquia, Colombia"
MINIMERCADO D1 BELLO PLAYA RICA,MEDELLIN PARA ANTIOQUIA,55463202,2013/08/21,CANCELADA,2017/07/28,2017,6.341475699999999,-75.56526,"Cl. 58 #59 - 66, Playa Rica, Bello, Antioquia, Colombia"
MINIMERCADO D1 BETANIA,MEDELLIN PARA ANTIOQUIA,67938502,2019/03/29,ACTIVA,2025/03/21,2025,5.746274,-75.97730399999999,"Cl. 15 #4-43 a 4-1, Betania, Antioquia, Colombia"
MINIMERCADO D1 BETULIA,MEDELLIN PARA ANTIOQUIA,70191702,2020/04/30,ACTIVA,2025/03/21,2025,6.1138486,-75.98551309999999,"Cl. 21 #22 - 23, Betulia, Antioquia, Colombia"
MINIMERCADO D1 BODEGA LA ESTRELLA,ABURRA SUR,141278,2010/10/27,ACTIVA,2025/03/13,2025,6.1620966,-75.63600290000001,"Cra. 54 #75aa Sur-117 a, Cl. 75 AA Sur #267, La Estrella, Antioquia, Colombia"
MINIMERCADO D1 BUCAREST,ABURRA SUR,191446,2016/07/05,ACTIVA,2025/03/13,2025,4.7570497,-74.0539646,"Cl. 174a #54C-28, Bogotá, Colombia"
MINIMERCADO D1 CALATRAVA,ABURRA SUR,224986,2019/10/17,ACTIVA,2025/03/13,2025,6.1798696,-75.61054829999999,"Cl. 56 # 60-38, Fatima, Itagüi, Antioquia, Colombia"
MINIMERCADO D1 CALDAS,ABURRA SUR,141118,2010/10/19,ACTIVA,2025/03/13,2025,6.0793217,-75.63483939999999,"Cra. 50 #145 Sur-83, Caldas, Medellín, Antioquia, Colombia"
MINIMERCADO D1 CALDAS HOSPITAL,ABURRA SUR,215114,2018/11/14,ACTIVA,2025/03/13,2025,6.0875875,-75.6351404,"Cra. 49 #134 Sur-1 a 134 Sur-103, Caldas, Antioquia, Colombia"
MINIMERCADO D1 CALDAS LA DOCENA,ABURRA SUR,180925,2015/05/26,ACTIVA,2025/03/13,2025,6.0951698,-75.6361841,"Cl. 125 Sur #75, Caldas, Antioquia, Colombia"
MINIMERCADO D1 CARMEN DE ATRATO,CHOCÓ,5827802,2020/02/12,ACTIVA,2025/03/14,2025,5.898122499999999,-76.1429881,"Cra. 2 #3-32, El Carmen de Atrato, Chocó, Colombia"
MINIMERCADO D1 CARMEN DE VIBORAL,ORIENTE ANTIOQUENO,74738,2011/12/19,ACTIVA,2025/03/19,2025,6.0807712,-75.3341885,"Cl. 27 #30-104 30-2 a, El Carmen de Viboral, Antioquia, Colombia"
MINIMERCADO D1 CASTROPOL,MEDELLIN PARA ANTIOQUIA,60935102,2016/04/07,ACTIVA,2025/03/21,2025,6.2153591,-75.5647862,"Cl. 15b #35a-190, El Poblado, Medellín, El Poblado, Medellín, Antioquia, Colombia"
MINIMERCADO D1 CEDI SUR,ABURRA SUR,224985,2019/10/17,ACTIVA,2025/03/13,2025,6.130073299999999,-75.6345817,"Cl. 97b Sur #50, La Estrella, Antioquia, Colombia"
MINIMERCADO D1 CENTRO DE LA MODA 2,ABURRA SUR,179803,2015/04/10,ACTIVA,2025/03/13,2025,6.190087,-75.59526579999999,"Cl. 81 #52d66, Villa Central, Itagüi, Antioquia, Colombia"
MINIMERCADO D1 CHINGUI,ABURRA SUR,207973,2018/03/15,ACTIVA,2025/03/13,2025,6.1517586,-75.5762889,"Zona 6, Envigado, Antioquia, Colombia"
MINIMERCADO D1 CIUDAD BOLIVAR,MEDELLIN PARA ANTIOQUIA,58248302,2014/12/26,ACTIVA,2025/03/21,2025,4.5757829,-74.15459179999999,"Avenida, Cl. 68 Sur #46a-4, Bogotá, Colombia"
MINIMERCADO D1 CONCORDIA,MEDELLIN PARA ANTIOQUIA,67050302,2018/11/14,ACTIVA,2025/03/21,2025,6.046990699999999,-75.90875059999999,"Cra. 20 #21-29, Concordia, Antioquia, Colombia"
MINIMERCADO D1 CRISTO REY,MEDELLIN PARA ANTIOQUIA,53162302,2012/06/19,ACTIVA,2025/03/21,2025,6.2056982,-75.5837421,"Cl. 2 Sur #50F-38, Guayabal, Medellín, Guayabal, Medellín, Antioquia, Colombia"
MINIMERCADO D1 DE MODA OUTLET,MEDELLIN PARA ANTIOQUIA,69046402,2019/09/13,ACTIVA,2025/03/21,2025,6.219639799999999,-75.5832162,"Cl. 16 #55-97, Guayabal, Medellín, Guayabal, Medellín, Antioquia, Colombia"
MINIMERCADO D1 DURESPO,ABURRA SUR,227598,2020/02/07,ACTIVA,2025/03/14,2025,6.160759199999999,-75.61734659999999,"Cra 42 # 29-67, San Jose, Itagüi, Antioquia, Colombia"
MINIMERCADO D1 EL BOLO,MEDELLIN PARA ANTIOQUIA,61863102,2016/09/01,ACTIVA,2025/03/21,2025,6.1962261,-75.5921947,"# a 12c 52,, Cl 12 Sur, Vivendas del Sur, Medellín, Antioquia, Colombia"
MINIMERCADO D1 EL CARMEN 2,ORIENTE ANTIOQUENO,78554,2012/09/12,ACTIVA,2025/03/19,2025,6.0858222,-75.3368977,"a 30a-50, Cl 34 #30a-2, El Carmen de Viboral, Antioquia, Colombia"
MINIMERCADO D1 EL CHAGUALO,MEDELLIN PARA ANTIOQUIA,57219002,2014/06/17,ACTIVA,2025/03/21,2025,6.2602801,-75.5715168,"Cl. 61 #56a-17, La Candelaria, Medellín, La Candelaria, Medellín, Antioquia, Colombia"
MINIMERCADO D1 EL PEÑOL,ORIENTE ANTIOQUENO,82810,2013/04/29,ACTIVA,2025/03/19,2025,6.2164693,-75.2385948,"Cl. 10 #20, Peñol, Antioquia, Colombia"
MINIMERCADO D1 EL PORTAL DEL SUR,ABURRA SUR,182266,2015/07/14,CANCELADA,2017/03/16,2017,4.6254164,-74.16893320000001,"Cra. 81g #42J-11 SUR, Bosa, Bogotá, Colombia"
MINIMERCADO D1 EL RETIRO,ORIENTE ANTIOQUENO,74707,2011/12/13,ACTIVA,2025/03/19,2025,6.057006599999999,-75.5020078,"Cl. 19 # 19 - 47, Retiro, Antioquia, Colombia"
MINIMERCADO D1 EL RODEO,MEDELLIN PARA ANTIOQUIA,52833902,2012/04/17,ACTIVA,2025/03/21,2025,6.2025599,-75.60149009999999,"Cl. 9 Sur #79-45, La Hondonada, Medellín, Belén, Medellín, Antioquia, Colombia"
MINIMERCADO D1 ENVIGADO BARRIO MESA,ABURRA SUR,186747,2016/01/27,ACTIVA,2025/03/13,2025,6.1665183,-75.583929,"Cl 38A Sur #35-32, Zona 9, Envigado, Antioquia, Colombia"
MINIMERCADO D1 ENVIGADO LAS PALMAS,ABURRA SUR,165177,2013/08/20,ACTIVA,2025/03/20,2025,6.1501274,-75.5311116,"Las Palmas-La Fé, Envigado, Vda. El Penasco, Envigado, Antioquia, Colombia"
MINIMERCADO D1 ENVIGADO PARQUE,ABURRA SUR,144967,2011/05/02,ACTIVA,2025/03/13,2025,6.1696958,-75.5853628,"Cra. 40 #36 Sur-21, Zona 9, Envigado, Antioquia, Colombia"
MINIMERCADO D1 ENVIGADO SAN JOSE,ABURRA SUR,185000,2015/10/23,ACTIVA,2025/03/13,2025,6.1625628,-75.5825129,"Cl. 40 Sur #30-49, Zona 6, Envigado, Antioquia, Colombia"
MINIMERCADO D1 ESCOBERO ALTO,ABURRA SUR,177027,2014/12/26,ACTIVA,2025/03/13,2025,6.160092,-75.5673894,"Cl. 36d Sur #25 A -71, Quinta Del Palmar, Envigado, Antioquia, Colombia"
MINIMERCADO D1 ESTRELLA LA ISLA,ABURRA SUR,225977,2019/12/05,ACTIVA,2025/03/14,2025,6.1341157,-75.63417299999999,"Cra. 50 #96, La Estrella, Antioquia, Colombia"
MINIMERCADO D1 EXPOSICIONES,MEDELLIN PARA ANTIOQUIA,62021202,2016/09/27,ACTIVA,2025/03/21,2025,6.238137099999999,-75.5734401,"Cra. 51 #36-51, La Candelaria, Medellín, La Candelaria, Medellín, Antioquia, Colombia"
MINIMERCADO D1 FREDONIA,MEDELLIN PARA ANTIOQUIA,53137302,2012/06/13,ACTIVA,2025/03/21,2025,5.9278163,-75.67195939999999,"Cra. 50 #50-34, Fredonia, Antioquia, Colombia"
MINIMERCADO D1 GUARNE,ORIENTE ANTIOQUENO,79836,2012/10/24,ACTIVA,2025/03/19,2025,6.2763908,-75.4404119,"a 50-22, Cl. 44 #502, Guarne, Antioquia, Colombia"
MINIMERCADO D1 GUARNE 2,ORIENTE ANTIOQUENO,93729,2015/06/23,ACTIVA,2025/03/19,2025,6.2763908,-75.4404119,"a 50-22, Cl. 44 #502, Guarne, Antioquia, Colombia"
MINIMERCADO D1 GUAYABAL,MEDELLIN PARA ANTIOQUIA,64475602,2017/10/09,ACTIVA,2025/03/21,2025,6.202207899999999,-75.5854834,"Cra #51, Guayabal, Medellín, Guayabal, Medellín, Antioquia, Colombia"
MINIMERCADO D1 HISPANIA,MEDELLIN PARA ANTIOQUIA,69410502,2019/11/18,ACTIVA,2025/03/21,2025,5.799925,-75.9076872,"a 50-83,, Cra. 51, #501, Hispania, Antioquia, Colombia"
MINIMERCADO D1 HORIZONTES,MEDELLIN PARA ANTIOQUIA,61157002,2016/05/10,ACTIVA,2025/03/21,2025,6.185892099999999,-75.65324389999999,"a 6-123,, Cl. 39D Sur #6-39, San Antonio de Prado, Medellín, Antioquia, Colombia"
MINIMERCADO D1 HOTEL NUTIBARA,MEDELLIN PARA ANTIOQUIA,58405602,2015/01/27,ACTIVA,2025/03/21,2025,6.2525879,-75.5674793,"Cra. 51 #53-17, La Candelaria, Medellín, La Candelaria, Medellín, Antioquia, Colombia"
MINIMERCADO D1 INDEPENDENCIAS,ABURRA SUR,187518,2016/02/18,ACTIVA,2025/03/13,2025,4.620068499999999,-74.1974688,"Cl. 71a Sur #87b-69, Bogotá, Colombia"
MINIMERCADO D1 ITAGUI EL CARMELO,ABURRA SUR,176317,2014/11/11,ACTIVA,2025/03/13,2025,6.1909623,-75.6022498,"a 57-388,, Cl. 76 #57-72, Itagüi, Antioquia, Colombia"
MINIMERCADO D1 ITAGUI EL ROSARIO,ABURRA SUR,230988,2020/07/03,ACTIVA,2025/03/14,2025,6.1753825,-75.6121708,"Cl. 48 #56-05, Fatima, Itagüi, Antioquia, Colombia"
MINIMERCADO D1 ITAGUI LA 39,ABURRA SUR,220799,2019/05/28,CANCELADA,2023/03/17,2023,6.1690257,-75.61766399999999,"Cl. 39 #49-180, Germania, Itagüi, Antioquia, Colombia"
MINIMERCADO D1 ITAGUI LAS ASTURIAS,ABURRA SUR,155230,2012/08/09,ACTIVA,2025/03/13,2025,6.1690499,-75.6114178,"Cra. 48 #46-36, Villa Paula, Itagüi, Antioquia, Colombia"
MINIMERCADO D1 ITAGUI LAS MERCEDES,ABURRA SUR,150194,2012/01/18,ACTIVA,2025/03/13,2025,6.169441300000001,-75.6139597,"Cl. 43 #49-52, Germania, Itagüi, Antioquia, Colombia"
MINIMERCADO D1 ITAGUI PARQUE,ABURRA SUR,135227,2009/11/24,ACTIVA,2025/03/13,2025,6.1738205,-75.6071954,"a 53a-113,, Cra. 51 #53a-57, Itagüi, Antioquia, Colombia"
MINIMERCADO D1 ITAGUI PLAYA RICA,ABURRA SUR,229063,2020/03/17,ACTIVA,2025/03/14,2025,6.1727059,-75.6130754,"Cl. 46 #5242, Fatima, Itagüi, Antioquia, Colombia"
MINIMERCADO D1 ITAGUI SIMON BOLIVAR,ABURRA SUR,138925,2010/06/30,ACTIVA,2025/03/13,2025,6.1793619,-75.5986988,"Cl. 65 #46a-90, Riachuelos, Itagüi, Medellín, Antioquia, Colombia"
MINIMERCADO D1 ITAGUI TRANSITO,ABURRA SUR,194966,2016/11/17,ACTIVA,2025/03/13,2025,6.1699027,-75.608862,"Cl. 50 #47A-03, Villa Paula, Itagüi, Antioquia, Colombia"
MINIMERCADO D1 JARDIN,MEDELLIN PARA ANTIOQUIA,64701602,2017/11/17,ACTIVA,2025/03/21,2025,5.5971551,-75.8198395,"Cra. 7 #54 9, Jardín, Antioquia, Colombia"
MINIMERCADO D1 JERICO,MEDELLIN PARA ANTIOQUIA,68031602,2019/04/10,ACTIVA,2025/03/21,2025,5.7896334,-75.7856383,"Cra. 7 #7-59, Jericó, Antioquia, Colombia"
MINIMERCADO D1 LA 10,MEDELLIN PARA ANTIOQUIA,52931602,2012/05/04,CANCELADA,2015/03/30,2015,4.6945861,-74.04961399999999,"Cl. 109 #18b1, Bogotá, Colombia"
MINIMERCADO D1 LA 80 X 30,MEDELLIN PARA ANTIOQUIA,49026502,2010/03/09,ACTIVA,2025/03/21,2025,4.6886051,-74.0831809,"Cl. 80 #69h, Cl. 73A #69h-3, Bogotá, Colombia"
MINIMERCADO D1 LA CASTELLANA,MEDELLIN PARA ANTIOQUIA,60264502,2015/12/15,ACTIVA,2025/03/21,2025,4.680488,-74.0590843,"Cl. 93 #44, Bogotá, Colombia"
MINIMERCADO D1 LA CEJA,ORIENTE ANTIOQUENO,70578,2010/12/16,ACTIVA,2025/03/19,2025,6.0300145,-75.4311754,"a 20-106, Cra. 17 #20-2, La Ceja, Antioquia, Colombia"
MINIMERCADO D1 LA CEJA 3,ORIENTE ANTIOQUENO,79895,2012/10/25,ACTIVA,2025/03/19,2025,6.0345532,-75.42993369999999,"Cra. 20 Antioquia #24-56, La Ceja, Antioquia, Colombia"
MINIMERCADO D1 LA CEJA 4,ORIENTE ANTIOQUENO,93183,2015/05/06,ACTIVA,2025/03/19,2025,6.0319762,-75.43616209999999,"19-2 a, Cl. 28, La Ceja, Antioquia, Colombia"
MINIMERCADO D1 LA ESTRELLA,ABURRA SUR,141120,2010/10/19,ACTIVA,2025/03/13,2025,6.1582555,-75.6440582,"a 61-105,, Pueblo Viejo, Cl. 80 Sur #61-1, La Estrella, Antioquia, Colombia"
MINIMERCADO D1 LA ESTRELLA CENTENARIO,ABURRA SUR,215713,2018/12/20,ACTIVA,2025/03/13,2025,6.161372500000001,-75.6423246,"Unnamed Road, Pueblo Viejo, La Estrella, Antioquia, Colombia"
MINIMERCADO D1 LA MINA,ABURRA SUR,162943,2013/05/28,ACTIVA,2025/03/13,2025,6.1534033,-75.58461,"Cl. 41 Sur #25-48, Zona 6, Envigado, Antioquia, Colombia"
MINIMERCADO D1 LA PINTADA,MEDELLIN PARA ANTIOQUIA,64434702,2017/10/03,ACTIVA,2025/03/21,2025,5.740660699999999,-75.6066218,"Rafael Uribe Uribe, La Pintada, Antioquia, Colombia"
MINIMERCADO D1 LA PRESENTACION,ABURRA SUR,156185,2012/09/11,CANCELADA,2024/03/19,2024,4.7498182,-74.05914400000002,"Cl 167 #5844 #58- a, Bogotá, Colombia"
MINIMERCADO D1 LA SEBASTIANA,ABURRA SUR,181810,2015/06/25,ACTIVA,2025/03/13,2025,6.170605399999999,-75.57950989999999,"Dg. 31 #34e Sur-54, Uribe Angel, Envigado, Antioquia, Colombia"
MINIMERCADO D1 LA UNION,ORIENTE ANTIOQUENO,79901,2012/10/25,ACTIVA,2025/03/19,2025,5.973737799999999,-75.3608362,"Cra. 9 #10-36, La Unión, Antioquia, Colombia"
MINIMERCADO D1 LAS LOMAS,MEDELLIN PARA ANTIOQUIA,60149502,2015/11/12,ACTIVA,2025/03/21,2025,4.5635195,-74.1079728,"Cra 9 F #40 sur, Bogotá, Colombia"
MINIMERCADO D1 LLANO GRANDE,ORIENTE ANTIOQUENO,80562,2012/11/13,ACTIVA,2025/03/19,2025,6.1330753,-75.40261070000001,"Rionegro, Antioquia, Colombia"
MINIMERCADO D1 LOMA DEL ESCOBERO,ABURRA SUR,143559,2011/03/04,CANCELADA,2016/03/30,2016,6.167451,-75.5612064,"Loma la Esmeralda, Envigado, Antioquia, Colombia"
MINIMERCADO D1 LOMA DEL INDIO,MEDELLIN PARA ANTIOQUIA,56032902,2013/12/06,ACTIVA,2025/03/21,2025,6.2279111,-75.5667011,"Cra. 38 #26-289, La Candelaria, Medellín, La Candelaria, Medellín, Antioquia, Colombia"
MINIMERCADO D1 LOMA EL ESMERALDAL,ABURRA SUR,172314,2014/06/03,ACTIVA,2025/03/13,2025,6.174820299999999,-75.5757277,"Cl 27DSur #27c-101, Villa Isa Tamarindo, Envigado, Antioquia, Colombia"
MINIMERCADO D1 LOMA LOS BALSOS,MEDELLIN PARA ANTIOQUIA,56076802,2013/12/20,CANCELADA,2016/03/30,2016,6.2038645,-75.5614445,"El Poblado, Medellín, El Poblado, Medellín, Antioquia, Colombia"
MINIMERCADO D1 LOMA LOS BERNAL,MEDELLIN PARA ANTIOQUIA,55866402,2013/10/31,ACTIVA,2025/03/21,2025,6.2196951,-75.602819,"Cra 81 #7, Medellín, Belén, Medellín, Antioquia, Colombia"
MINIMERCADO D1 LOS PARRA,MEDELLIN PARA ANTIOQUIA,53445702,2012/08/09,ACTIVA,2025/03/21,2025,6.1997154,-75.5627207,"# a 1 94,, Cl. 1, Vivendas del Sur, Medellín, Antioquia, Colombia"
MINIMERCADO D1 MALL 80,MEDELLIN PARA ANTIOQUIA,62433102,2016/12/19,ACTIVA,2025/03/21,2025,6.2091571,-75.5935997,"Dg. 75B #67-166, Guayabal, Medellín, Guayabal, Medellín, Antioquia, Colombia"
MINIMERCADO D1 MANILA,MEDELLIN PARA ANTIOQUIA,62113202,2016/10/11,ACTIVA,2025/03/21,2025,6.2131469,-75.5707613,"Cl. 12 #43b-5, El Poblado, Medellín, El Poblado, Medellín, Antioquia, Colombia"
MINIMERCADO D1 MARINILLA 2,ORIENTE ANTIOQUENO,80852,2012/12/18,ACTIVA,2025/03/19,2025,6.1735415,-75.334328,"a 30-62,, Cra. 30 #3026, Marinilla, Antioquia, Colombia"
MINIMERCADO D1 MARINILLA 3,ORIENTE ANTIOQUENO,83701,2013/06/28,ACTIVA,2025/03/19,2025,6.1748085,-75.33940989999999,"Cl. 29 #3682 36- a, Marinilla, Antioquia, Colombia"
MINIMERCADO D1 MARINILLA 4 LA DALIA,ORIENTE ANTIOQUENO,95789,2016/01/04,ACTIVA,2025/03/19,2025,6.1700119,-75.32967699999999,"Marinilla, Antioquia, Colombia"
MINIMERCADO D1 PANTANILLO,ABURRA SUR,182496,2015/07/22,ACTIVA,2025/03/20,2025,6.1708459,-75.49019340000001,"Medellín-Santa Elena-Glorieta Aeropuerto Jmc, Envigado, El Cebadero, Envigado, Antioquia, Colombia"
MINIMERCADO D1 PAVEZGO,ABURRA SUR,156184,2012/09/11,CANCELADA,2024/03/19,2024,4.6805042,-74.1166713,"Cra. 85k #46a45, Bogotá, Colombia"
MINIMERCADO D1 PIAZZA BELLA,MEDELLIN PARA ANTIOQUIA,53446002,2012/08/09,ACTIVA,2025/03/21,2025,6.2038645,-75.5614445,"El Poblado, Medellín, El Poblado, Medellín, Antioquia, Colombia"
MINIMERCADO D1 PIETRA SANTA,ABURRA SUR,141844,2010/12/02,ACTIVA,2025/03/13,2025,6.181586299999999,-75.5806458,"Cl. 24 Sur #42b165 42b- a, Los Cristales, Envigado, Antioquia, Colombia"
MINIMERCADO D1 POBLADO PARQUE,MEDELLIN PARA ANTIOQUIA,57140602,2014/06/04,ACTIVA,2025/03/21,2025,6.2086957,-75.5709602,"a 7d-98,, Av. El Poblado #7d22, Medellín, Antioquia, Colombia"
MINIMERCADO D1 POBLADO PATIO BONITO,MEDELLIN PARA ANTIOQUIA,58796602,2015/03/24,ACTIVA,2025/03/21,2025,6.2100116,-75.57634089999999,"Cra. 47 #7 114, El Poblado, Medellín, El Poblado, Medellín, Antioquia, Colombia"
MINIMERCADO D1 POBLADO VISITACION,MEDELLIN PARA ANTIOQUIA,49564202,2010/06/24,ACTIVA,2025/03/21,2025,6.197552,-75.5657445,"Carrera 32S #2B - 83, El Poblado, Medellín, El Poblado, Medellín, Antioquia, Colombia"
MINIMERCADO D1 PRADITO 2,MEDELLIN PARA ANTIOQUIA,70382602,2020/06/12,ACTIVA,2025/03/21,2025,6.1843278,-75.64346619999999,"Cl. 41 Sur #6 Este-32 a 6 Este-2, San Antonio de Prado, Medellín, Antioquia, Colombia"
MINIMERCADO D1 PUEBLO RICO,MEDELLIN PARA ANTIOQUIA,66560902,2018/08/30,ACTIVA,2025/03/21,2025,5.22295,-76.0308871,"Cl. 8 #4-80, Pueblo Rico, Risaralda, Colombia"
MINIMERCADO D1 RIONEGRO,ORIENTE ANTIOQUENO,70538,2010/12/02,ACTIVA,2025/03/19,2025,6.1510547,-75.3854072,"a 67-43, Cl. 47 #67-1, Rionegro, Antioquia, Colombia"
MINIMERCADO D1 RIONEGRO AEROCENTRO,ORIENTE ANTIOQUENO,89209,2014/07/10,ACTIVA,2025/03/19,2025,6.179219199999999,-75.4429686,"MALL AEROCENTRO, LOCAL 104, Rionegro, Antioquia, Colombia"
MINIMERCADO D1 RIONEGRO GALERIA,ORIENTE ANTIOQUENO,81581,2013/02/13,ACTIVA,2025/03/19,2025,6.1583137,-75.3693626,"a 46-48, Cl. 59 #46-2, Rionegro, Antioquia, Colombia"
MINIMERCADO D1 RIONEGRO PORVENIR,ORIENTE ANTIOQUENO,83172,2013/05/23,CANCELADA,2017/03/06,2017,6.1510547,-75.3854072,"a 67-43, Cl. 47 #67-1, Rionegro, Antioquia, Colombia"
MINIMERCADO D1 RIONEGRO UCO,ORIENTE ANTIOQUENO,72889,2011/06/14,ACTIVA,2025/03/19,2025,6.1494919,-75.3678771,"a 46b-28,, Cl. 41 #462, Rionegro, Antioquia, Colombia"
MINIMERCADO D1 RODEO LA 79,MEDELLIN PARA ANTIOQUIA,69499602,2019/12/06,ACTIVA,2025/03/21,2025,6.2100775,-75.601601,"Cra. 79 #1s43, El Rincon, Medellín, Belén, Medellín, Antioquia, Colombia"
MINIMERCADO D1 SABANETA CALLE LARGA,ABURRA SUR,166439,2013/10/07,ACTIVA,2025/03/13,2025,6.1504194,-75.61930029999999,"Cl. 75 Sur #45-44, Sabaneta, Antioquia, Colombia"
MINIMERCADO D1 SABANETA CALLE LARGA 2,ABURRA SUR,219278,2019/04/09,ACTIVA,2025/03/13,2025,6.150970399999999,-75.6205952,"# 59 a 121, Cl. 75 Sur, Sabaneta, Antioquia, Colombia"
MINIMERCADO D1 SABANETA PARQUE 2,ABURRA SUR,165176,2013/08/20,ACTIVA,2025/03/13,2025,6.153493699999999,-75.616849,"Cl. 69 Sur #46a-40 local 101, Sabaneta, Antioquia, Colombia"
MINIMERCADO D1 SABANETA SAN JOSE,ABURRA SUR,195080,2016/11/23,ACTIVA,2025/03/13,2025,6.147309,-75.619379,"Cra. 45 #75 Sur-391, Sabaneta, Antioquia, Colombia"
MINIMERCADO D1 SABANETA SANTA ANA,ABURRA SUR,232030,2020/08/06,ACTIVA,2025/03/14,2025,6.1518596,-75.61385059999999,"Cra. 43C # 67 sur - 26, Sabaneta, Antioquia, Colombia"
MINIMERCADO D1 SAMARIA,ABURRA SUR,149700,2011/12/13,ACTIVA,2025/03/13,2025,6.168647,-75.6233872,"Margaritas, Cl. 36 #54-23, Samaria, Itagüi, Antioquia, Colombia"
MINIMERCADO D1 SAN ANTONIO DE PEREIRA,ORIENTE ANTIOQUENO,70537,2010/12/02,ACTIVA,2025/03/19,2025,6.1307725,-75.3795355,"a 24-88, La Ceja-Río Negro #24-2, Rionegro, Antioquia, Colombia"
MINIMERCADO D1 SAN ANTONIO DE PRADO,MEDELLIN PARA ANTIOQUIA,53450302,2012/08/09,ACTIVA,2025/03/21,2025,6.1844012,-75.658396,"Cra. 82 #42sur-41, San Antonio de Prado, Medellín, Antioquia, Colombia"
MINIMERCADO D1 SAN ANTONIO DE PRADO 2,MEDELLIN PARA ANTIOQUIA,65666602,2018/04/16,ACTIVA,2025/03/21,2025,6.1844012,-75.658396,"Cra. 82 #42sur-41, San Antonio de Prado, Medellín, Antioquia, Colombia"
MINIMERCADO D1 SAN FERNANDO,ABURRA SUR,179661,2015/04/06,ACTIVA,2025/03/13,2025,4.6666389,-74.07827619999999,"Cl. 68 #53-32, Bogotá, Colombia"
MINIMERCADO D1 SAN FRANCISCO,ABURRA SUR,169759,2014/03/03,ACTIVA,2025/03/13,2025,4.9759661,-74.2895735,"Cl. 4 #No 8-99, San Francisco, Cundinamarca, Colombia"
MINIMERCADO D1 SAN GABRIEL ITAGUI,ABURRA SUR,155229,2012/08/09,ACTIVA,2025/03/13,2025,6.1734357,-75.6319448,"a 66b-101,, Itagüí-San Antonio de Prado #66b-93, Itagüi, Antioquia, Colombia"
MINIMERCADO D1 SAN IGNACIO AYACUCHO,MEDELLIN PARA ANTIOQUIA,53662802,2012/09/17,ACTIVA,2025/03/21,2025,6.246495899999999,-75.5637014,"Av. Ayacucho #43 - 40, La Candelaria, Medellín, La Candelaria, Medellín, Antioquia, Colombia"
MINIMERCADO D1 SAN ISIDRO,ABURRA SUR,195366,2016/12/14,ACTIVA,2025/03/13,2025,4.7408192,-74.06415779999999,"Cra. 59 #152B - 79, Bogotá, Colombia"
MINIMERCADO D1 SAN LUCAS,MEDELLIN PARA ANTIOQUIA,57737102,2014/09/16,ACTIVA,2025/03/21,2025,6.180074299999999,-75.5613845,"Cra. 22 #19 Sur-1 a 19 Sur-103, Medellín, Antioquia, Colombia"
MINIMERCADO D1 SAN PIO,ABURRA SUR,134932,2009/10/28,ACTIVA,2025/03/13,2025,6.164204499999999,-75.61983510000002,"Dg. 47 #32-03, Camparola, Itagüi, Antioquia, Colombia"
MINIMERCADO D1 SAN VICENTE,ORIENTE ANTIOQUENO,76858,2012/05/28,ACTIVA,2025/03/19,2025,6.2830134,-75.3323288,"Cl. Córdoba, San Vicente, Antioquia, Colombia"
MINIMERCADO D1 SANTA BARBARA,MEDELLIN PARA ANTIOQUIA,54658002,2013/04/03,ACTIVA,2025/03/21,2025,4.704533,-74.0499279,"Cl. 125 #19-89, Bogotá, Colombia"
MINIMERCADO D1 SANTA FE,MEDELLIN PARA ANTIOQUIA,55093502,2013/06/18,ACTIVA,2025/03/21,2025,4.6034418,-74.0681681,"Cra. 3 #19 - 15, Santa Fé, Bogotá, Colombia"
MINIMERCADO D1 SANTA MARIA,ABURRA SUR,141561,2010/11/17,ACTIVA,2025/03/13,2025,4.7319496,-74.10417369999999,"Cl. 129d, Bogotá, Colombia"
MINIMERCADO D1 SANTUARIO,ORIENTE ANTIOQUENO,76146,2012/03/23,ACTIVA,2025/03/19,2025,6.1396209,-75.2660195,"Cra. 50 #5035, El Santuario, Antioquia, Colombia"
MINIMERCADO D1 SONSON,ORIENTE ANTIOQUENO,88441,2014/05/19,ACTIVA,2025/03/19,2025,5.7083683,-75.3103197,"a 5-103, Cl. 6 #5-1, Sonsón, Antioquia, Colombia"
MINIMERCADO D1 TABLAZA,ABURRA SUR,180761,2015/05/20,ACTIVA,2025/03/13,2025,6.1210407,-75.6345048,"Cra. 50 #97b Sur - 181, La Estrella, Antioquia, Colombia"
MINIMERCADO D1 TAMESIS,MEDELLIN PARA ANTIOQUIA,69046302,2019/09/13,ACTIVA,2025/03/21,2025,5.663596399999999,-75.7115705,"Cra. 8 #11-2 a 11-84, Támesis, Antioquia, Colombia"
MINIMERCADO D1 TORRES DEL SUR,ABURRA SUR,225976,2019/12/05,ACTIVA,2025/03/14,2025,6.0793217,-75.63483939999999,"Cra. 50 #145 Sur-83, Caldas, Medellín, Antioquia, Colombia"
MINIMERCADO D1 URRAO,MEDELLIN PARA ANTIOQUIA,68041102,2019/04/11,ACTIVA,2025/03/21,2025,6.316366599999999,-76.13557949999999,"Cra. 32 #29-24, Urrao, Antioquia, Colombia"
MINIMERCADO D1 VALLEJUELOS,ABURRA SUR,153878,2012/06/13,ACTIVA,2025/03/13,2025,6.165982,-75.59496349999999,"Cl. 45 Sur #43a125 #43a- a, Zona 8, Envigado, Antioquia, Colombia"
MINIMERCADO D1 VARIANTE CALDAS,ABURRA SUR,226866,2020/01/22,ACTIVA,2025/03/14,2025,6.1315556,-75.6314165,"25 #98 Sur-3, La Estrella, Antioquia, Colombia"
MINIMERCADO D1 VENECIA,MEDELLIN PARA ANTIOQUIA,53256802,2012/07/05,ACTIVA,2025/03/21,2025,4.591610999999999,-74.139515,"Dg. 49 Sur #53-85, Bogotá, Colombia"
MINIMERCADO D1 VILLA DE ABURRA,MEDELLIN PARA ANTIOQUIA,56370302,2014/02/11,ACTIVA,2025/03/21,2025,6.236021099999999,-75.6021157,"Cl. 32C #80a152 80a-118 a 80a, Medellín, Belén, Medellín, Antioquia, Colombia"
MINIMERCADO D1 VILLA HERMOSA,MEDELLIN PARA ANTIOQUIA,52931502,2012/05/04,ACTIVA,2025/03/21,2025,6.25849,-75.5525136,"Cra. 40 #65B-72, Medellín, Villa Hermosa, Medellín, Antioquia, Colombia"
MINIMERCADO D1. MARINILLA,ORIENTE ANTIOQUENO,70535,2010/12/02,ACTIVA,2025/03/19,2025,6.169414600000001,-75.3372378,"Cra. 31 #2360 23- a, Marinilla, Antioquia, Colombia"
MINITIENDA D1 CEDI IBAGUE,IBAGUE,343817,2022/05/05,ACTIVA,2025/03/20,2025,4.444914499999999,-75.1910862,"CRA. 11 B &, Cl. 77, Ibagué, Tolima, Colombia"
MINITIENDA D1 CEDI SIBATE,BOGOTA,3438928,2021/10/06,ACTIVA,2025/03/07,2025,4.495036199999999,-74.2581606,"a 7-96 Calle 13, Cl. 13 #7-37 #7-2, Sibaté, Cundinamarca, Colombia"
TIENA D1 TUMACO LA CIUDADELA,TUMACO,47432,2022/05/09,ACTIVA,2025/03/11,2025,1.7906238,-78.79022909999999,"Tumaco, San Andres de Tumaco, Nariño, Colombia"
TIENDA D1 ACACIAS,VILLAVICENCIO,361039,2019/11/08,ACTIVA,2025/03/19,2025,3.9854961,-73.76651079999999,"Cra. 23 #124, Acacías, Meta, Colombia"
TIENDA D1 BUENAVENTURA PANAMERICANO,BUENAVENTURA,181230,2018/02/21,ACTIVA,2025/03/10,2025,3.872654099999999,-76.997699,"Buenaventura, Valle del Cauca, Colombia"
TIENDA D1 EL BORDO,CAUCA,200303,2020/03/10,ACTIVA,2025/03/10,2025,2.1229986,-76.9791184,"El Bordo-Piedra Sentada, El Bordo, Patía, Cauca, Colombia"
TIENDA D1 UNICENTRO,CUCUTA,378479,2020/09/29,ACTIVA,2025/02/28,2025,4.7021426,-74.0411165,"Cra. 15 #124-30, Usaquén, Bogotá, Colombia"
TIENDA D1 VALHER,DOSQUEBRADAS,39729,2012/07/16,ACTIVA,2025/03/21,2025,4.6886051,-74.0831809,"Cl. 80 #69h, Cl. 73A #69h-3, Bogotá, Colombia"
TIENDA D1 CALDAS PACORA,MANIZALES,217774,2021/10/06,ACTIVA,2025/03/14,2025,5.527955899999999,-75.4576804,"Cra. 1 #5-86, Pácora, Caldas, Colombia"
TIENDA D1 FUNZA CENTRO,FACATATIVA,83219,2013/08/02,ACTIVA,2025/03/19,2025,4.7180558,-74.2093953,"Cra. 13 #16 85, Funza, Cundinamarca, Colombia"
TIENDA D1 128 BULEVAR,BOGOTA,3222929,2020/02/20,ACTIVA,2025/03/07,2025,4.7118597,-74.071969,"Cra. 58 #127-59, Bogotá, Colombia"
TIENDA D1 450 AÑOS,VALLEDUPAR,175933,2020/11/10,ACTIVA,2025/03/25,2025,4.7155512,-74.0701133,"Cra. 58 #128a-2 a 128a-100, Bogotá, Colombia"
TIENDA D1 72 DEL LAGO,BOGOTA,3878086,2024/10/04,ACTIVA,2025/03/07,2025,4.6892537,-74.0967297,"Av. Boyacá #73, Bogotá, Colombia"
TIENDA D1 ABEDULES,URABA,97932,2020/03/03,ACTIVA,2025/03/18,2025,4.7483333,-74.0582385,"Cra. 56 #165b-2, Bogotá, Colombia"
TIENDA D1 ABEJORRAL,ORIENTE ANTIOQUENO,119601,2019/03/29,ACTIVA,2025/03/19,2025,5.7916392,-75.4267565,"Abejorral, Antioquia, Colombia"
TIENDA D1 ABREGO,OCANA,34711,2019/07/26,ACTIVA,2025/03/27,2025,8.0813539,-73.22104329999999,"Cl. 14 #5 - 28, Abrego, Norte de Santander, Colombia"
TIENDA D1 ACACIAS BACHUE,VILLAVICENCIO,429944,2022/12/14,CANCELADA,2023/02/21,2023,4.7145911,-74.098318,"Cl. 90b #93-39, Bogotá, Colombia"
TIENDA D1 ACACIAS CALLE 12,VILLAVICENCIO,393315,2021/04/26,ACTIVA,2025/03/19,2025,3.9854961,-73.76651079999999,"Cra. 23 #124, Acacías, Meta, Colombia"
TIENDA D1 ACACIAS LA FLORIDA,VILLAVICENCIO,464427,2024/08/29,ACTIVA,2025/03/19,2025,3.9854961,-73.76651079999999,"Cra. 23 #124, Acacías, Meta, Colombia"
TIENDA D1 ACEVEDO,MEDELLIN PARA ANTIOQUIA,68734802,2019/07/26,CANCELADA,2020/07/02,2020,4.7331863,-74.0859649,"Cra. 91 #132a 4a 04, Bogotá, Colombia"
TIENDA D1 ACEVEDO TEJADA,BOGOTA,2806613,2017/04/20,ACTIVA,2025/03/07,2025,4.630069799999999,-74.08254459999999,"Cl. 26a #32A-50, Teusaquillo, Bogotá, Colombia"
TIENDA D1 AEROPUERTO,CUCUTA,383257,2020/11/30,ACTIVA,2025/03/12,2025,7.930829999999999,-72.5047209,"Cl. 14 # 27 - 2, Barrio El Aeropuerto, Cúcuta, Norte de Santander, Colombia"
TIENDA D1 AGUACHICA CALLE 10,AGUACHICA,59116,2021/07/22,ACTIVA,2025/03/27,2025,8.3031545,-73.61944179999999,"Cra. 14 #83 # 10, Aguachica, Cesar, Colombia"
TIENDA D1 AGUAS CALIENTES,CUCUTA,464579,2024/09/13,ACTIVA,2025/03/19,2025,4.704457,-74.0547875,"Auto. Norte #12375, Bogotá, Colombia"
TIENDA D1 AGUAS CALIENTES,CUCUTA,427613,2022/09/22,CANCELADA,2022/09/22,2022,4.704457,-74.0547875,"Auto. Norte #12375, Bogotá, Colombia"
TIENDA D1 AGUAZUL,CASANARE,141881,2019/05/14,ACTIVA,2025/03/13,2025,5.170380199999999,-72.5511078,"Aguazul, Casanare, Colombia"
TIENDA D1 ALAMEDA,BOGOTA,3189545,2019/11/12,ACTIVA,2025/03/07,2025,3.4360097,-76.5343173,"Cl. 9 #23a-17, La Alameda, Cali, Valle del Cauca, Colombia"
TIENDA D1 ALAMOS 72,BOGOTA,3755071,2023/11/22,ACTIVA,2025/03/07,2025,4.7042527,-74.11680849999999,"Cra. 100b #7217, Bogotá, Colombia"
TIENDA D1 ALCALA,CARTAGO,73976,2012/12/12,ACTIVA,2025/03/20,2025,4.7196095,-74.0552775,"34, Cra. 49 #134, Suba, Bogotá, Colombia"
TIENDA D1 ALCAPARROS,BOGOTA,3241104,2020/05/22,ACTIVA,2025/03/07,2025,4.737102699999999,-74.1024971,"Cl 132 #108-04, Suba, Bogotá, Colombia"
TIENDA D1 ALDEA DE GIRON,BUCARAMANGA,9000455286,2020/03/09,ACTIVA,2025/03/21,2025,7.0678293,-73.17769330000002,"jardines de la aldea, Cl. 35 #32, Girón, Santander, Colombia"
TIENDA D1 ALFONSO LOPEZ,MEDELLIN PARA ANTIOQUIA,54787802,2013/04/24,ACTIVA,2025/03/21,2025,10.4734213,-73.2583252,"Cl. 13b #18-61, Alfonso López, Valledupar, Cesar, Colombia"
TIENDA D1 ALFONSO LOPEZ BMGA,BUCARAMANGA,9000624392,2022/07/12,ACTIVA,2025/03/21,2025,7.1159555,-73.13154209999999,"Cl. 37 #8-67 a 8-1, García Rovira, Bucaramanga, Santander, Colombia"
TIENDA D1 ALOHA,BOGOTA,3720515,2023/08/22,ACTIVA,2025/03/07,2025,4.7570497,-74.0539646,"Cl. 174a #54C-28, Bogotá, Colombia"
TIENDA D1 ALQUERIA AUTOSUR,BOGOTA,2656168,2016/02/18,ACTIVA,2025/03/07,2025,4.5951149,-74.1373019,"Cl. 45a Sur #52c-70, Bogotá, Colombia"
TIENDA D1 ALTAVISTA,PEREIRA,18105775,2013/06/19,ACTIVA,2025/03/21,2025,4.796179899999999,-75.7415694,"a 77b-420, Cra. 26 #77b-68, Pereira, Risaralda, Colombia"
TIENDA D1 ALTO DE PAMPLONITA,CUCUTA,385529,2021/01/20,ACTIVA,2025/03/12,2025,7.897182900000001,-72.4756192,"Av. 9 #7-2 a 7-138, Cúcuta, Norte de Santander, Colombia"
TIENDA D1 ALTOS DE CABECERA,BUCARAMANGA,9000498419,2021/08/23,ACTIVA,2025/03/21,2025,7.1177106,-73.1062948,"Cra. 40 #46-66, Cabecera del llano, Bucaramanga, Santander, Colombia"
TIENDA D1 AMALFI,MAGDALENA MEDIO,64059,2018/08/23,ACTIVA,2025/03/27,2025,6.9077667,-75.0732088,"Cl. 20 #17-101 a 17-1, Amalfi, Antioquia, Colombia"
TIENDA D1 AMAZONIA,MEDELLIN PARA ANTIOQUIA,63294702,2017/04/12,ACTIVA,2025/03/21,2025,6.319331699999999,-75.5685654,"Cl 27B #442, Bello, Antioquia, Colombia"
TIENDA D1 AMBALEMA,HONDA,67123,2019/09/02,ACTIVA,2025/03/18,2025,4.7805826,-74.7648573,"Cra. 4 #8-45, Ambalema, Tolima, Colombia"
TIENDA D1 AMERICAS ANDES,BOGOTA,2913877,2018/02/02,ACTIVA,2025/03/07,2025,4.6265075,-74.1378009,"Av. Boyacá # 3 A - 34, Bogotá, D.C, Bogotá, Colombia"
TIENDA D1 ANAPOIMA,GIRARDOT,84223,2017/05/05,ACTIVA,2025/03/17,2025,4.553168299999999,-74.5342053,"Cl. 8 #4-1, Anapoima, Cundinamarca, Colombia"
TIENDA D1 ANDALUCIA,BOGOTA,3197648,2019/12/13,ACTIVA,2025/03/07,2025,4.6543874,-74.1364444,"Cl 15A #81-54, Kennedy, Bogotá, Colombia"
TIENDA D1 ANDALUCIA,TULUA,75100,2013/02/20,ACTIVA,2025/03/11,2025,4.6543874,-74.1364444,"Cl 15A #81-54, Kennedy, Bogotá, Colombia"
TIENDA D1 ANGOSTURA,MEDELLIN PARA ANTIOQUIA,70738202,2020/08/25,CANCELADA,2024/03/15,2024,6.888434999999999,-75.33483559999999,"Yarumal - Angostura #14-67, Angostura, Antioquia, Colombia"
TIENDA D1 ANILLO VIAL,BUCARAMANGA,9000495703,2021/07/21,ACTIVA,2025/03/21,2025,7.063197499999999,-73.1461602,"45A, Girón, Santander, Colombia"
TIENDA D1 ANOLAIMA,FACATATIVA,169297,2022/10/13,ACTIVA,2025/03/19,2025,4.7628362,-74.4635134,"Cra. 5 #1-18, Anolaima, Cundinamarca, Colombia"
TIENDA D1 ANORI,MAGDALENA MEDIO,79991,2023/03/22,ACTIVA,2025/03/27,2025,7.0736414,-75.151313,"Dg. 37 #38-37, Anorí, Antioquia, Colombia"
TIENDA D1 ANSERMA,MANIZALES,166079,2014/07/25,ACTIVA,2025/03/21,2025,5.2319605,-75.7872489,"Cra. 5 #13-10, Anserma, Caldas, Colombia"
TIENDA D1 ANSERMA LA PRADERA,MANIZALES,210897,2020/11/25,ACTIVA,2025/03/20,2025,5.2429199,-75.78112829999999,"Cra. 5 #25-125, Anserma, Caldas, Colombia"
TIENDA D1 ANSERMANUEVO,CARTAGO,77551,2013/12/06,ACTIVA,2025/03/20,2025,4.795666199999999,-75.9949492,"Cl. 6 # 4 - 34, Ansermanuevo, Valle del Cauca, Colombia"
TIENDA D1 ANT ANGELOPOLIS,MEDELLIN PARA ANTIOQUIA,79133702,2024/03/15,ACTIVA,2025/03/21,2025,6.1117991,-75.7108769,"Cl. 11 #11-22, Angelópolis, Antioquia, Colombia"
TIENDA D1 ANT ARGELIA,ORIENTE ANTIOQUENO,133271,2021/01/27,ACTIVA,2025/03/20,2025,5.7313633,-75.1413369,"Cl. 31 #28-50, Argelia, Antioquia, Colombia"
TIENDA D1 ANT CAICEDO SANTA LUCIA,MEDELLIN PARA ANTIOQUIA,80853702,2024/12/19,ACTIVA,2025/03/21,2025,6.2592842,-75.6039048,"Cl. 47F #8671 86- a, Santa Lucia, Medellín, La América, Medellín, Antioquia, Colombia"
TIENDA D1 ANT CALDAS LA PLANTA,ABURRA SUR,261777,2023/04/26,ACTIVA,2025/03/14,2025,,,
TIENDA D1 ANT CALDAS OLAYA,ABURRA SUR,259482,2023/02/14,ACTIVA,2025/03/14,2025,6.095116399999999,-75.6295806,"Cl. 126 Sur #292, Caldas, Antioquia, Colombia"
TIENDA D1 ANT CALDAS VILLA MARIA,ABURRA SUR,264212,2023/07/12,ACTIVA,2025/03/14,2025,5.0313834,-75.48013619999999,"Cra. 1, Villamaría, Caldas, Colombia"
TIENDA D1 ANT CARAMANTA,MEDELLIN PARA ANTIOQUIA,77239702,2023/05/23,ACTIVA,2025/03/21,2025,5.5486862,-75.6448625,"Cra. 21 #19-43, Caramanta, Antioquia, Colombia"
TIENDA D1 ANT CARMEN EL CANADA,ORIENTE ANTIOQUENO,146542,2022/07/07,ACTIVA,2025/03/20,2025,6.0809798,-75.342964,"El Carmen de Viboral, Antioquia, Colombia"
TIENDA D1 ANT CENTRO COMERCIAL LA CENTRAL,MEDELLIN PARA ANTIOQUIA,80853802,2024/12/19,CANCELADA,2024/12/19,2024,6.238861,-75.5483024,"Cl. 49B #21-38, El Vergel, Medellín, Buenos Aires, Medellín, Antioquia, Colombia"
TIENDA D1 ANT ENVIGADO JARDINES,ABURRA SUR,267370,2023/10/13,ACTIVA,2025/03/14,2025,6.1788389,-75.58697219999999,"Cra. 46A #29Sur - 120, Zona 2, Envigado, Antioquia, Colombia"
TIENDA D1 ANT ENVIGADO LAS CASITAS,ABURRA SUR,257582,2022/11/18,ACTIVA,2025/03/14,2025,6.1611186,-75.60063269999999,"Cra. 43A #49S-27, Zona 8, Envigado, Antioquia, Colombia"
TIENDA D1 ANT ENVIGADO LAS COMETAS,ABURRA SUR,254563,2022/08/10,ACTIVA,2025/03/14,2025,6.1717246,-75.5774593,"Dg. 29 #34aa Sur-35 a, Cl. 34aa Sur #131, Envigado, Antioquia, Colombia"
TIENDA D1 ANT GUARNE LAS VEGAS,ORIENTE ANTIOQUENO,139324,2021/09/06,ACTIVA,2025/03/20,2025,6.2808076,-75.4443861,"Cra. 52 #52-38, Guarne, Antioquia, Colombia"
TIENDA D1 ANT GUARNE SANTA ANA,ORIENTE ANTIOQUENO,140721,2021/11/09,CANCELADA,2021/11/09,2021,6.2763908,-75.4404119,"a 50-22, Cl. 44 #502, Guarne, Antioquia, Colombia"
TIENDA D1 ANT GUATAPE MALECON,ORIENTE ANTIOQUENO,163884,2024/06/13,ACTIVA,2025/03/20,2025,6.233264999999999,-75.16028299999999,"Cra. 29 #29-09, Guatape, Guatapé, Antioquia, Colombia"
TIENDA D1 ANT HELICONIA,MEDELLIN PARA ANTIOQUIA,72219402,2021/04/23,ACTIVA,2025/03/21,2025,6.207436,-75.73298969999999,"Heliconia, Antioquia, Colombia"
TIENDA D1 ANT LA CEJA LA ANTIOQUEÑITA,ORIENTE ANTIOQUENO,166612,2024/10/04,ACTIVA,2025/03/20,2025,6.0229826,-75.4319754,"Cl. 10 #18-40, La Ceja, Antioquia, Colombia"
TIENDA D1 ANT LA CEJA MARIA AUXILIADORA,ORIENTE ANTIOQUENO,157813,2023/10/17,ACTIVA,2025/03/20,2025,6.029055899999999,-75.433853,"Cl. 7, La Ceja, Antioquia, Colombia"
TIENDA D1 ANT LA CEJA PAYUCO,ORIENTE ANTIOQUENO,140731,2021/11/09,ACTIVA,2025/03/20,2025,6.0213071,-75.436629,"Cra. 22 #5b-132, La Ceja, Antioquia, Colombia"
TIENDA D1 ANT MARINILLA LA RAMADA,ORIENTE ANTIOQUENO,155021,2023/06/14,ACTIVA,2025/03/20,2025,6.1700119,-75.32967699999999,"Marinilla, Antioquia, Colombia"
TIENDA D1 ANT MARINILLA LA ROCA,ORIENTE ANTIOQUENO,157817,2023/10/17,ACTIVA,2025/03/20,2025,6.1797244,-75.3450161,"Cl. 30 #48-14, Marinilla, Antioquia, Colombia"
TIENDA D1 ANT MARINILLA LOS PINOS,ORIENTE ANTIOQUENO,168156,2025/01/08,ACTIVA,2025/01/08,2025,6.1735415,-75.334328,"a 30-62,, Cra. 30 #3026, Marinilla, Antioquia, Colombia"
TIENDA D1 ANT PEÑOL 2,ORIENTE ANTIOQUENO,136238,2021/04/27,ACTIVA,2025/03/20,2025,6.2225272,-75.2485325,"Cl. 9 #25-13, Peñol, Antioquia, Colombia"
TIENDA D1 ANT PUERTO NARE,MAGDALENA MEDIO,82997,2024/02/09,ACTIVA,2025/03/20,2025,6.187518600000001,-74.58200490000002,"Cra. 3 #49, Puerto Nare, Antioquia, Colombia"
TIENDA D1 ANT RETIRO CLUB,ORIENTE ANTIOQUENO,166613,2024/10/04,CANCELADA,2024/10/04,2024,6.057006599999999,-75.5020078,"Cl. 19 # 19 - 47, Retiro, Antioquia, Colombia"
TIENDA D1 ANT RETIRO SAN JOSE,ORIENTE ANTIOQUENO,151430,2023/02/09,ACTIVA,2025/03/20,2025,6.0612971,-75.5026041,"Cra. 20 #24-87, Retiro, Antioquia, Colombia"
TIENDA D1 ANT RIONEGRO EL TABLAZO,ORIENTE ANTIOQUENO,157671,2023/10/10,ACTIVA,2025/03/20,2025,6.1413883,-75.4343664,"KM13 + 360 Vía JMC, Rionegro, Antioquia, Colombia"
TIENDA D1 ANT SABANETA PORTAL DEL CARMELO,ABURRA SUR,254546,2022/08/09,ACTIVA,2025/03/14,2025,,,
TIENDA D1 ANT SAN ANTONIO DE PEREIRA LOS ALPES,ORIENTE ANTIOQUENO,168161,2025/01/08,ACTIVA,2025/01/08,2025,,,
TIENDA D1 ANT SAN VICENTE LAS PARTIDAS,ORIENTE ANTIOQUENO,167476,2024/11/14,CANCELADA,2024/11/14,2024,4.7314422,-74.0502568,"Auto. Norte #14929, Bogotá, Colombia"
TIENDA D1 ANT SAN VICENTE PARTIDAS,ORIENTE ANTIOQUENO,172427,2025/05/16,ACTIVA,2025/05/16,2025,6.2830134,-75.3323288,"Cl. Córdoba, San Vicente, Antioquia, Colombia"
TIENDA D1 ANT SANTUARIO LA MARIA,ORIENTE ANTIOQUENO,137024,2021/06/02,ACTIVA,2025/03/20,2025,,,
TIENDA D1 ANT SONSÓN BATALLÓN,ORIENTE ANTIOQUENO,156334,2023/08/10,ACTIVA,2025/03/20,2025,5.7186835,-75.3091061,"Cra. 9 #17-04, Sonsón, Antioquia, Colombia"
TIENDA D1 ANTIOQUIA NECHI,MAGDALENA MEDIO,83822,2024/03/21,ACTIVA,2025/03/10,2025,8.0942331,-74.77499,"Nechí, Antioquia, Colombia"
TIENDA D1 ANTONIA SANTOS,CUCUTA,357667,2019/09/10,ACTIVA,2025/03/27,2025,7.915725800000001,-72.5354618,"Cl. 24a #54-138, Barrio Antonia Santos, Cúcuta, Norte de Santander, Colombia"
TIENDA D1 APARTADO ALFONSO LOPEZ,URABA,94734,2019/07/05,ACTIVA,2025/03/18,2025,7.879935799999999,-76.6335467,"a 94-76, Cra. 100 #94-2, Apartadó, Antioquia, Colombia"
TIENDA D1 APARTADO EL REPOSO,URABA,92045,2019/01/10,ACTIVA,2025/03/18,2025,7.8006343,-76.6520855,"El Reposo, Apartadó, Antioquia, Colombia"
TIENDA D1 APARTADO JARDINES DE COMFAMA,URABA,101381,2020/11/23,ACTIVA,2025/03/18,2025,7.879935799999999,-76.6335467,"a 94-76, Cra. 100 #94-2, Apartadó, Antioquia, Colombia"
TIENDA D1 APARTADO LA 100,URABA,92698,2019/02/19,ACTIVA,2025/03/18,2025,7.879935799999999,-76.6335467,"a 94-76, Cra. 100 #94-2, Apartadó, Antioquia, Colombia"
TIENDA D1 APARTADO LA CHINITA,URABA,96610,2019/11/28,ACTIVA,2025/03/18,2025,7.884954800000001,-76.6308349,"Cl. 103 #48-64, Apartadó, Antioquia, Colombia"
TIENDA D1 APARTADO LA MARTINA,URABA,93355,2019/03/29,ACTIVA,2025/03/18,2025,7.879935799999999,-76.6335467,"a 94-76, Cra. 100 #94-2, Apartadó, Antioquia, Colombia"
TIENDA D1 APARTADO LAURELES,URABA,94551,2019/06/18,CANCELADA,2020/07/16,2020,7.892445700000001,-76.6351804,"CR 58 #103 29, Apartadó, Antioquia, Colombia"
TIENDA D1 APARTADO LAURELES,URABA,102509,2021/02/15,ACTIVA,2025/03/18,2025,7.892445700000001,-76.6351804,"CR 58 #103 29, Apartadó, Antioquia, Colombia"
TIENDA D1 APARTADO NUESTRO URABA,URABA,107900,2022/02/15,CANCELADA,2023/03/21,2023,7.873196900000001,-76.6348734,"Apartadó, Cabo de Hornos, Apartadó, Antioquia, Colombia"
TIENDA D1 APARTADO SALVADOR,URABA,94548,2019/06/18,CANCELADA,2019/06/18,2019,7.879935799999999,-76.6335467,"a 94-76, Cra. 100 #94-2, Apartadó, Antioquia, Colombia"
TIENDA D1 APIA,PEREIRA,18176968,2020/08/21,ACTIVA,2025/03/19,2025,,,
TIENDA D1 AQUITANIA BOYACA,SOGAMOSO,79074,2019/05/31,ACTIVA,2025/03/04,2025,5.519244,-72.88311420000001,"Cra. 6 ##844, Aquitania, Boyacá, Colombia"
TIENDA D1 ARACATACA,SANTA MARTA PARA EL MAGDALENA,227711,2020/04/20,ACTIVA,2025/03/26,2025,10.593437,-74.19042209999999,"Cl. 8 #2-2, Aracataca, Magdalena, Colombia"
TIENDA D1 ARANJUEZ,MEDELLIN PARA ANTIOQUIA,56051302,2013/12/12,ACTIVA,2025/03/21,2025,6.284737,-75.5592547,"Cl. 93 ##502, Aranjuez, Medellín, Aranjuez, Medellín, Antioquia, Colombia"
TIENDA D1 ARANJUEZ 3,MEDELLIN PARA ANTIOQUIA,65855002,2018/05/15,ACTIVA,2025/03/21,2025,6.284737,-75.5592547,"Cl. 93 ##502, Aranjuez, Medellín, Aranjuez, Medellín, Antioquia, Colombia"
TIENDA D1 ARANJUEZ 4,MEDELLIN PARA ANTIOQUIA,67048902,2018/11/13,ACTIVA,2025/03/21,2025,6.284737,-75.5592547,"Cl. 93 ##502, Aranjuez, Medellín, Aranjuez, Medellín, Antioquia, Colombia"
TIENDA D1 ARANZAZU,MANIZALES,222560,2022/05/12,ACTIVA,2025/03/20,2025,5.2724424,-75.49039859999999,"Cra. 5 #7-45 a 7-1, Aranzazu, Caldas, Colombia"
TIENDA D1 ARAUCA EL MILAGRO,ARAUCA,40108,2023/11/07,ACTIVA,2025/02/27,2025,7.0806413,-70.7605492,"Cra. 24, Arauca, Colombia"
TIENDA D1 ARAUCA SANTA TERESITA,ARAUCA,40184,2023/12/15,ACTIVA,2025/02/27,2025,7.0806413,-70.7605492,"Cra. 24, Arauca, Colombia"
TIENDA D1 ARBOLES,MEDELLIN PARA ANTIOQUIA,61905602,2016/09/08,ACTIVA,2025/03/21,2025,4.7314422,-74.0502568,"Auto. Norte #14929, Bogotá, Colombia"
TIENDA D1 ARBOLETES,URABA,94554,2019/06/18,ACTIVA,2025/03/18,2025,8.8537596,-76.4271291,"Cra. 30 #31-37, Arboletes, Antioquia, Colombia"
TIENDA D1 ARBOLETES 2,URABA,118359,2024/03/20,ACTIVA,2025/03/18,2025,8.8537596,-76.4271291,"Cra. 30 #31-37, Arboletes, Antioquia, Colombia"
TIENDA D1 ARGELIA,SINCELEJO,116371,2020/08/13,ACTIVA,2025/03/20,2025,5.7313633,-75.1413369,"Cl. 31 #28-50, Argelia, Antioquia, Colombia"
TIENDA D1 ARIGUANI,SANTA MARTA PARA EL MAGDALENA,255360,2022/05/13,ACTIVA,2025/03/26,2025,9.8469905,-74.2373199,"Cl. 4 #6-98, El Difícil, Ariguaní, Magdalena, Colombia"
TIENDA D1 ARJONA,CARTAGENA,42299802,2019/09/11,ACTIVA,2025/03/25,2025,10.2521916,-75.3434475,"a 45-199 Carrera 41, Cra. 41 #45-1 45-1, Arjona, Bolívar, Colombia"
TIENDA D1 ARJONA EDS CENTRAL,CARTAGENA,47758902,2023/06/05,ACTIVA,2025/03/25,2025,10.2521916,-75.3434475,"a 45-199 Carrera 41, Cra. 41 #45-1 45-1, Arjona, Bolívar, Colombia"
TIENDA D1 ARJONA TRONCAL,CARTAGENA,46570902,2022/02/14,CANCELADA,2024/02/27,2024,10.2521916,-75.3434475,"a 45-199 Carrera 41, Cra. 41 #45-1 45-1, Arjona, Bolívar, Colombia"
TIENDA D1 ARMENIA,ARMENIA,179420,2012/05/14,ACTIVA,2025/03/29,2025,4.531295399999999,-75.6736932,"Cra. 13 #22-41, Armenia, Quindío, Colombia"
TIENDA D1 ARMENIA ALAMEDA 19,ARMENIA,247237,2020/11/20,ACTIVA,2025/03/20,2025,4.550722299999999,-75.6660567,"Cra. 19 #10, Armenia, Quindío, Colombia"
TIENDA D1 ARMENIA CENTENARIO,ARMENIA,211470,2016/11/16,ACTIVA,2025/03/20,2025,4.5556469,-75.6511721,"Armenia, Quindío, Colombia"
TIENDA D1 ARMENIA CENTRO,ARMENIA,181560,2012/09/10,ACTIVA,2025/03/21,2025,4.531295399999999,-75.6736932,"Cra. 13 #22-41, Armenia, Quindío, Colombia"
TIENDA D1 ARMENIA CRA 13,ARMENIA,182870,2012/12/05,ACTIVA,2025/03/22,2025,4.531295399999999,-75.6736932,"Cra. 13 #22-41, Armenia, Quindío, Colombia"
TIENDA D1 ARMENIA CRA 14,ARMENIA,180524,2012/07/16,ACTIVA,2025/03/29,2025,4.5377142,-75.6719748,"Cl. 14 #18-5, Armenia, Quindío, Colombia"
TIENDA D1 ARMENIA DAR PAPAYA,ARMENIA,245546,2020/09/17,CANCELADA,2021/08/26,2021,4.5427281,-75.69017649999999,"Cl. 22 #40-37, Armenia, Quindío, Colombia"
TIENDA D1 ARMENIA EL EDEN,ARMENIA,210242,2016/09/08,ACTIVA,2025/03/20,2025,4.5006784,-75.7204308,"Kilometro 4 Via el Edén, Armenia, Quindío, Colombia"
TIENDA D1 ARMENIA EL GUADUAL,ARMENIA,276033,2024/01/17,ACTIVA,2025/03/19,2025,4.514047,-75.6979504,"Cra. 18 #57-295 a 57-3, Armenia, Quindío, Colombia"
TIENDA D1 ARMENIA EL PORTICO,ARMENIA,208258,2016/06/13,ACTIVA,2025/03/20,2025,4.550722299999999,-75.6660567,"Cra. 19 #10, Armenia, Quindío, Colombia"
TIENDA D1 ARMENIA FUNDADORES,ARMENIA,188982,2013/10/08,ACTIVA,2025/03/20,2025,4.545321299999999,-75.6627956,"Cra. 14 #1a - 118, Armenia, Quindío, Colombia"
TIENDA D1 ARMENIA GRANADA,ARMENIA,218685,2017/08/23,ACTIVA,2025/03/20,2025,4.519197999999999,-75.70282,"Cl. 50, Armenia, Quindío, Colombia"
TIENDA D1 ARMENIA IBERICA,ARMENIA,289875,2025/05/28,ACTIVA,2025/05/28,2025,4.550722299999999,-75.6660567,"Cra. 19 #10, Armenia, Quindío, Colombia"
TIENDA D1 ARMENIA JARDINES,ARMENIA,244137,2020/07/30,ACTIVA,2025/03/20,2025,4.507235,-75.69080699999999,"Cra. 8 #54b-376 a 54b-514, Armenia, Quindío, Colombia"
TIENDA D1 ARMENIA LA CASTELLANA,ARMENIA,282037,2024/08/08,ACTIVA,2025/03/22,2025,4.5537319,-75.6572352,"Cl. 15 Nte. #1218, Armenia, Quindío, Colombia"
TIENDA D1 ARMENIA LA FACHADA,ARMENIA,247392,2020/12/04,ACTIVA,2025/03/19,2025,4.518373899999999,-75.7123861,"Armenia, Quindío, Colombia"
TIENDA D1 ARMENIA LA PATRIA,ARMENIA,200810,2015/07/02,ACTIVA,2025/03/20,2025,4.5427281,-75.69017649999999,"Cl. 22 #40-37, Armenia, Quindío, Colombia"
TIENDA D1 ARMENIA LAS ACASIAS,ARMENIA,210662,2016/09/26,ACTIVA,2025/03/20,2025,3.9854961,-73.76651079999999,"Cra. 23 #124, Acacías, Meta, Colombia"
TIENDA D1 ARMENIA LIMONAR,ARMENIA,247393,2020/12/04,ACTIVA,2025/03/19,2025,4.5482917,-75.6760243,"Cra 24A #5-03, Armenia, Quindío, Colombia"
TIENDA D1 ARMENIA MIRADOR DEL QUINDIO,ARMENIA,229692,2018/11/09,ACTIVA,2025/03/20,2025,4.545321299999999,-75.6627956,"Cra. 14 #1a - 118, Armenia, Quindío, Colombia"
TIENDA D1 ARMENIA MONTECARLO,ARMENIA,266462,2022/11/17,ACTIVA,2025/03/19,2025,4.5424174,-75.6906583,"Cl. 23 #3462, Armenia, Quindío, Colombia"
TIENDA D1 ARMENIA PLAZA,ARMENIA,266701,2022/12/02,ACTIVA,2025/03/19,2025,4.519197999999999,-75.70282,"Cl. 50, Armenia, Quindío, Colombia"
TIENDA D1 ARMENIA PRIVILEGIO,ARMENIA,270347,2023/04/18,ACTIVA,2025/03/19,2025,4.531295399999999,-75.6736932,"Cra. 13 #22-41, Armenia, Quindío, Colombia"
TIENDA D1 ARMENIA PUERTO ESPEJO,ARMENIA,200091,2015/05/26,ACTIVA,2025/03/20,2025,4.519197999999999,-75.70282,"Cl. 50, Armenia, Quindío, Colombia"
TIENDA D1 ARMENIA SAN DIEGO,ARMENIA,202180,2015/09/11,ACTIVA,2025/03/20,2025,4.5316683,-75.6920349,"Cl. 30 #30-1 30-101 a, Armenia, Quindío, Colombia"
TIENDA D1 ARMENIA SAN SUR,ARMENIA,238360,2019/11/14,ACTIVA,2025/03/20,2025,4.519197999999999,-75.70282,"Cl. 50, Armenia, Quindío, Colombia"
TIENDA D1 ARMENIA SENIOR´S MALL,ARMENIA,244787,2020/08/21,ACTIVA,2025/03/20,2025,4.4701152,-75.75424389999999,"La Tebaida-El Caimo, Armenia, Quindío, Colombia"
TIENDA D1 ARMENIA TERMINAL,ARMENIA,238720,2019/12/13,ACTIVA,2025/03/20,2025,4.531295399999999,-75.6736932,"Cra. 13 #22-41, Armenia, Quindío, Colombia"
TIENDA D1 ARMERO GUAYABAL CENTRO,HONDA,66922,2019/07/30,ACTIVA,2025/03/18,2025,5.0274856,-74.8883067,"Cra. 7 #52, Guayabal, Armero, Tolima, Colombia"
TIENDA D1 ARRECIFE,BOGOTA,3424578,2021/09/06,ACTIVA,2025/03/07,2025,4.7483333,-74.0582385,"Cra. 56 #165b-2, Bogotá, Colombia"
TIENDA D1 ASTREA CESAR,VALLEDUPAR,188902,2022/03/09,ACTIVA,2025/03/25,2025,9.5002171,-73.9740135,"Cl. 5, Astrea, Cesar, Colombia"
TIENDA D1 ATACO,SUR Y ORIENTE DEL TOLIMA,99997,2019/08/21,ACTIVA,2025/03/21,2025,3.5906951,-75.3812982,"Cl. 8 #6-44, Ataco, Tolima, Colombia"
TIENDA D1 ATAHUALPA,BOGOTA,3348895,2021/03/08,ACTIVA,2025/03/07,2025,4.6900064,-74.1469079,"Cra. 116a #23-26, Bogotá, Colombia"
TIENDA D1 ATALAYA AV 3,CUCUTA,427633,2022/09/22,CANCELADA,2022/09/22,2022,4.674615,-74.1207312,"Cra. 85c #25F-13, Fontibón, Bogotá, Colombia"
TIENDA D1 AURES VILLA MARIA,BOGOTA,3754017,2023/11/20,ACTIVA,2025/03/07,2025,4.7319496,-74.10417369999999,"Cl. 129d, Bogotá, Colombia"
TIENDA D1 AUTOMOTRIZ,MEDELLIN PARA ANTIOQUIA,68710902,2019/07/23,ACTIVA,2025/03/21,2025,4.7410947,-74.0640511,"Cra. 59 #152B-95 Piso 2, Bogotá, Colombia"
TIENDA D1 AUTONORTE KM 20,BOGOTA,3950192,2025/04/14,ACTIVA,2025/04/14,2025,4.704457,-74.0547875,"Auto. Norte #12375, Bogotá, Colombia"
TIENDA D1 AUTOPISTA 128,BOGOTA,3825732,2024/05/27,ACTIVA,2025/03/07,2025,4.704457,-74.0547875,"Auto. Norte #12375, Bogotá, Colombia"
TIENDA D1 AUTOPISTA NORTE,MEDELLIN PARA ANTIOQUIA,60658502,2016/02/24,ACTIVA,2025/03/21,2025,4.7314422,-74.0502568,"Auto. Norte #14929, Bogotá, Colombia"
TIENDA D1 AV CALI CON 80,BOGOTA,2264428,2012/10/11,ACTIVA,2025/03/07,2025,4.702222799999999,-74.1013283,"Av Ciudad de Cali #62s78, Engativá, Bogotá, Cundinamarca, Colombia"
TIENDA D1 AV. PRADILLA,BOGOTA,2938920,2018/03/27,ACTIVA,2025/03/07,2025,4.8622226,-74.0574493,"Av. Pradilla # 8 - 37, Chía, Cundinamarca, Colombia"
TIENDA D1 AV. QUITO II,BOGOTA,2656172,2016/02/18,ACTIVA,2025/03/07,2025,4.6603697,-74.0778121,"Ave Cra 30 #64a33, Bogotá, Colombia"
TIENDA D1 AV. ROJAS II,BOGOTA,2752221,2016/11/08,ACTIVA,2025/03/07,2025,4.6746096,-74.0981597,"Cra. 70b #64b-28, Bogotá, Colombia"
TIENDA D1 AVANTI CLUB HOUSE,BOGOTA,3592859,2022/10/06,ACTIVA,2025/03/07,2025,4.7483594,-74.0487217,"Cra. 47 #167a10, Suba, Bogotá, Cundinamarca, Colombia"
TIENDA D1 AVENIDA CERO,CUCUTA,439920,2023/04/21,ACTIVA,2025/03/19,2025,7.899454499999999,-72.5003923,"Cl 1AN #0-39, Barrio La ceiba, Cúcuta, Norte de Santander, Colombia"
TIENDA D1 AVENIDA FERNANDEZ,OCANA,39385,2021/09/09,ACTIVA,2025/03/19,2025,4.6265075,-74.1378009,"Av. Boyacá # 3 A - 34, Bogotá, D.C, Bogotá, Colombia"
TIENDA D1 AVENIDA LAS AMERICAS,CUCUTA,356607,2019/08/26,ACTIVA,2025/03/27,2025,4.6372046,-74.1550075,"81c- a 81c-31, Av. de las Américas #541, Bogotá, Colombia"
TIENDA D1 AVENIDA ORIENTAL,MEDELLIN PARA ANTIOQUIA,66482802,2018/08/21,ACTIVA,2025/03/21,2025,6.2521064,-75.5619893,"Cl. 56 #45-2 a 45-170, La Candelaria, Medellín, La Candelaria, Medellín, Antioquia, Colombia"
TIENDA D1 AVENIDA QUINTA,CUCUTA,438375,2023/03/25,ACTIVA,2025/03/19,2025,,,
TIENDA D1 AVENIDA TERCERA,CUCUTA,376531,2020/09/03,ACTIVA,2025/02/28,2025,7.891234399999998,-72.5024663,"Av. 3 #6-21, Cúcuta, Norte de Santander, Colombia"
TIENDA D1 BAGRE CENTRO,MAGDALENA MEDIO,76748,2022/05/11,ACTIVA,2025/03/10,2025,7.599140100000001,-74.8117838,"Cl. 50 #4746, El Bagre, Antioquia, Colombia"
TIENDA D1 BANCO MAGDALENA LA SEPTIMA,SANTA MARTA PARA EL MAGDALENA,248274,2021/11/04,ACTIVA,2025/03/26,2025,8.994078799999999,-73.9713201,"Cl. 7, El Banco, Magdalena, Colombia"
TIENDA D1 BARANOA,BARRANQUILLA,750969,2019/11/28,ACTIVA,2025/03/20,2025,10.7946043,-74.91587369999999,"Cra. 18 #1957, Baranoa, Atlántico, Colombia"
TIENDA D1 BARANOA MANZANARES,BARRANQUILLA,852549,2022/10/12,ACTIVA,2025/03/20,2025,10.8053412,-74.9154121,"Cra. 19 #10-21, Baranoa, Atlántico, Colombia"
TIENDA D1 BARANOA TRONCAL,BARRANQUILLA,785247,2021/03/12,ACTIVA,2025/03/20,2025,10.8011099,-74.9089036,"Troncal del Caribe #90, Baranoa, Atlántico, Colombia"
TIENDA D1 BARBOSA,MEDELLIN PARA ANTIOQUIA,50254802,2010/11/24,ACTIVA,2025/03/21,2025,5.9285557,-73.61788709999999,"Cra. 7 #51, Barbosa, Santander, Colombia"
TIENDA D1 BARBOSA 2,MEDELLIN PARA ANTIOQUIA,64764602,2017/11/29,ACTIVA,2025/03/21,2025,6.4361163,-75.3301087,"Cl. 15 #11, Barbosa, Antioquia, Colombia"
TIENDA D1 BARBOSA CENTRO,BUCARAMANGA,9000430508,2019/04/23,ACTIVA,2025/02/19,2025,5.935241299999999,-73.614723,"Barbosa, Santander, Colombia"
TIENDA D1 BARBOSA CRA 10,BUCARAMANGA,9000645901,2023/04/24,ACTIVA,2025/02/19,2025,5.935241299999999,-73.614723,"Barbosa, Santander, Colombia"
TIENDA D1 BARBOSA MATASANOS,MEDELLIN PARA ANTIOQUIA,73361602,2021/10/15,ACTIVA,2025/03/21,2025,6.464815300000001,-75.3673566,"Donmatías - Hatillo, Barbosa, Antioquia, Colombia"
TIENDA D1 BARBOSA PTO MULERO,MEDELLIN PARA ANTIOQUIA,73812702,2022/01/14,ACTIVA,2025/03/21,2025,6.4388177,-75.3340331,"MOCA, PR, 006760000, BARBOSA #231, Barbosa, Antioquia, Colombia"
TIENDA D1 BARBOSA TERMINAL,MEDELLIN PARA ANTIOQUIA,77006302,2023/04/19,ACTIVA,2025/03/21,2025,5.935241299999999,-73.614723,"Barbosa, Santander, Colombia"
TIENDA D1 BARICHARA COLONIAL,BUCARAMANGA,9000639465,2023/02/10,ACTIVA,2025/03/28,2025,6.6354903,-73.22212680000001,"Cra. 7 #6-89, Barichara, Santander, Colombia"
TIENDA D1 BARRANCA COMERCIO,BARRANCABERMEJA,127911,2021/09/10,ACTIVA,2025/03/19,2025,7.0610531,-73.85823599999999,"Cra. 19 #51-61, Barrancabermeja, Santander, Colombia"
TIENDA D1 BARRANCAS,LA GUAJIRA,162132,2021/03/10,ACTIVA,2025/03/26,2025,4.7331632,-74.02542749999999,"#2 a 98, Ak 7, Bogotá, Colombia"
TIENDA D1 BARRANCAS 2,LA GUAJIRA,177675,2023/05/09,ACTIVA,2025/03/26,2025,4.7331632,-74.02542749999999,"#2 a 98, Ak 7, Bogotá, Colombia"
TIENDA D1 BARRANQUILLA 7 DE ABRIL,BARRANQUILLA,820536,2021/10/08,ACTIVA,2025/03/20,2025,10.9256543,-74.8144401,"Cl 51B #9 Sur-12, Metropolitana, Barranquilla, Atlántico, Colombia"
TIENDA D1 BARRANQUILLA ALAMEDA,BARRANQUILLA,884614,2024/01/29,ACTIVA,2025/03/20,2025,10.9998192,-74.8407058,"Av. Circunvalar, Cl. 110 #43c91, Nte. Centro Historico, Barranquilla, Atlántico, Colombia"
TIENDA D1 BARRANQUILLA ALTO PRADO,BARRANQUILLA,736128,2019/06/05,ACTIVA,2025/03/20,2025,11.0040327,-74.8150632,"Cra. 51 #82-30, Nte. Centro Historico, Barranquilla, Atlántico, Colombia"
TIENDA D1 BARRANQUILLA ASTURIAS,BARRANQUILLA,788198,2021/04/15,ACTIVA,2025/03/20,2025,,,
TIENDA D1 BARRANQUILLA BARRANQUILLITA,BARRANQUILLA,784626,2021/03/08,CANCELADA,2021/03/08,2021,10.9829325,-74.78181959999999,"Cl. 40 #43-95, Nte. Centro Historico, Barranquilla, Atlántico, Colombia"
TIENDA D1 BARRANQUILLA BARRIO ABAJO,BARRANQUILLA,750972,2019/11/28,ACTIVA,2025/03/20,2025,10.9912438,-74.7844662,"Cra. 52, Nte. Centro Historico, Barranquilla, Atlántico, Colombia"
TIENDA D1 BARRANQUILLA BELLO HORIZONTE,BARRANQUILLA,778406,2021/01/13,ACTIVA,2025/03/20,2025,11.0135754,-74.79703649999999,"Cl. 77 ##72104, Nte. Centro Historico, Barranquilla, Atlántico, Colombia"
TIENDA D1 BARRANQUILLA BOSQUES DE MARIA,BARRANQUILLA,798838,2021/08/10,ACTIVA,2025/03/20,2025,10.9566483,-74.8168881,"Cl. 72a #9d-74, El Bosque, Barranquilla, Atlántico, Colombia"
TIENDA D1 BARRANQUILLA BOSTON,BARRANQUILLA,781221,2021/02/05,ACTIVA,2025/03/20,2025,10.9891374,-74.7953668,"Cl. 59, Nte. Centro Historico, Barranquilla, Atlántico, Colombia"
TIENDA D1 BARRANQUILLA BOULEVARD 41,BARRANQUILLA,755991,2020/02/07,ACTIVA,2025/03/20,2025,10.983959,-74.7956973,"Cra. 41 #57-18, Nte. Centro Historico, Barranquilla, Atlántico, Colombia"
TIENDA D1 BARRANQUILLA CALLE 76,BARRANQUILLA,784634,2021/03/08,ACTIVA,2025/03/20,2025,10.9987273,-74.8087833,"Cl. 76 #49, Nte. Centro Historico, Barranquilla, Atlántico, Colombia"
TIENDA D1 BARRANQUILLA CALLE 84,BARRANQUILLA,765411,2020/08/12,ACTIVA,2025/03/20,2025,11.0020244,-74.8186836,"Cl. 84 #46-46, Nte. Centro Historico, Barranquilla, Atlántico, Colombia"
TIENDA D1 BARRANQUILLA CARIBE VERDE,BARRANQUILLA,732612,2019/04/25,ACTIVA,2025/03/20,2025,10.9552558,-74.8364789,"Av. Circunvalar #98-697, Suroccidente, Barranquilla, Atlántico, Colombia"
TIENDA D1 BARRANQUILLA CARRERA 8,BARRANQUILLA,744175,2019/09/06,ACTIVA,2025/03/20,2025,10.9457271,-74.7947629,"Cra. 8 #38b-51, Sur Orient, Barranquilla, Atlántico, Colombia"
TIENDA D1 BARRANQUILLA CARRIZAL,BARRANQUILLA,738171,2019/07/02,ACTIVA,2025/03/20,2025,10.9375493,-74.8077287,"Cl. 50c # 3 - 35, Carrizal, Barranquilla, Atlántico, Colombia"
TIENDA D1 BARRANQUILLA CASA BONITA,BARRANQUILLA,732692,2019/04/25,ACTIVA,2025/03/20,2025,10.9902734,-74.8108336,"esquina, CRA 41 calle 74, Barranquilla, Atlántico, Colombia"
TIENDA D1 BARRANQUILLA CEDI CALIFORNIA,BARRANQUILLA,876637,2023/09/08,ACTIVA,2025/03/20,2025,4.7498182,-74.05914400000002,"Cl 167 #5844 #58- a, Bogotá, Colombia"
TIENDA D1 BARRANQUILLA CENTRO,BARRANQUILLA,741377,2019/08/06,ACTIVA,2025/03/20,2025,10.9829325,-74.78181959999999,"Cl. 40 #43-95, Nte. Centro Historico, Barranquilla, Atlántico, Colombia"
TIENDA D1 BARRANQUILLA CENTRO CARRERA 43,BARRANQUILLA,891557,2024/05/06,ACTIVA,2025/03/20,2025,10.9981656,-74.819745,"Cra. 43 #82-209, Nte. Centro Historico, Barranquilla, Atlántico, Colombia"
TIENDA D1 BARRANQUILLA CIUDAD JARDIN,BARRANQUILLA,750970,2019/11/28,ACTIVA,2025/03/20,2025,10.987158,-74.8218512,"Dirección:, Cl. 80b #No. 39-39, Barranquilla, Atlántico, Colombia"
TIENDA D1 BARRANQUILLA CIUDAD MODESTO,BARRANQUILLA,792905,2021/06/08,ACTIVA,2025/03/20,2025,10.9640578,-74.8308528,"Cra. 13 #98-44, Suroccidente, Barranquilla, Atlántico, Colombia"
TIENDA D1 BARRANQUILLA CIUDADELA,BARRANQUILLA,733041,2019/04/30,ACTIVA,2025/03/20,2025,10.9319164,-74.79947779999999,"Cl. 45 #1e-3, Ciudadela 20 de Julio, Barranquilla, Atlántico, Colombia"
TIENDA D1 BARRANQUILLA CORDIALIDAD CON 13,BARRANQUILLA,732615,2019/04/25,ACTIVA,2025/03/20,2025,10.9579943,-74.8040201,"Cr. de la Cordialidad #13-82 a 13, Metropolitana, Barranquilla, Atlántico, Colombia"
TIENDA D1 BARRANQUILLA CORDIALIDAD EL BOSQUE,BARRANQUILLA,733120,2019/04/30,ACTIVA,2025/03/20,2025,10.9462276,-74.8209547,"Cra. 6 #75 B - 50, El Bosque, Barranquilla, Atlántico, Colombia"
TIENDA D1 BARRANQUILLA CRA 51B,BARRANQUILLA,880546,2023/11/10,ACTIVA,2025/03/20,2025,11.0028319,-74.8092722,"Cra. 51B & Cl. 79, Nte. Centro Historico, Barranquilla, Atlántico, Colombia"
TIENDA D1 BARRANQUILLA DARK STORE,BARRANQUILLA,880967,2023/11/21,ACTIVA,2025/03/20,2025,10.9973986,-74.80277,"Cra. 52 #70-271 a 70-151, Barranquilla, Atlántico, Colombia"
TIENDA D1 BARRANQUILLA EDS CALLE 30,BARRANQUILLA,904096,2024/11/22,ACTIVA,2025/03/20,2025,11.0142768,-74.8365953,"Cl. 106 #50-67, Riomar, Barranquilla, Atlántico, Colombia"
TIENDA D1 BARRANQUILLA EDS CHIQUINQUIRA,BARRANQUILLA,904094,2024/11/22,ACTIVA,2025/03/20,2025,,,
TIENDA D1 BARRANQUILLA EDS TRINIDAD,BARRANQUILLA,870023,2023/05/31,ACTIVA,2025/03/20,2025,10.9764819,-74.83659,"Cl. 111 #29-115, Suroccidente, Barranquilla, Atlántico, Colombia"
TIENDA D1 BARRANQUILLA EL CARMEN CORDIALIDAD,BARRANQUILLA,732694,2019/04/25,ACTIVA,2025/03/20,2025,,,
TIENDA D1 BARRANQUILLA EL SILENCIO,BARRANQUILLA,838519,2022/05/11,ACTIVA,2025/03/20,2025,10.9792098,-74.8139471,"Cra. 27 #73c23, Suroccidente, Barranquilla, Atlántico, Colombia"
TIENDA D1 BARRANQUILLA GOLF,BARRANQUILLA,732634,2019/04/25,ACTIVA,2025/03/20,2025,11.0117172,-74.8087779,"a 64-110, Cl. 81b #64-2, Barranquilla, Atlántico, Colombia"
TIENDA D1 BARRANQUILLA GRANADILLO,BARRANQUILLA,736016,2019/06/05,ACTIVA,2025/03/20,2025,11.0020244,-74.8186836,"Cl. 84 #46-46, Nte. Centro Historico, Barranquilla, Atlántico, Colombia"
TIENDA D1 BARRANQUILLA HOTEL DORADO,BARRANQUILLA,736094,2019/06/05,ACTIVA,2025/03/20,2025,11.0040327,-74.8150632,"Cra. 51 #82-30, Nte. Centro Historico, Barranquilla, Atlántico, Colombia"
TIENDA D1 BARRANQUILLA LA 14,BARRANQUILLA,863325,2023/03/06,ACTIVA,2025/03/20,2025,10.9520791,-74.78765419999999,"Cra. 14 #31-20, Sur Orient, Barranquilla, Atlántico, Colombia"
TIENDA D1 BARRANQUILLA LA 38,BARRANQUILLA,781219,2021/02/05,ACTIVA,2025/03/20,2025,10.9835627,-74.8037976,"Cra. 38 #6844, El Recreo, Barranquilla, Atlántico, Colombia"
TIENDA D1 BARRANQUILLA LA 44,BARRANQUILLA,872141,2023/07/05,ACTIVA,2025/03/20,2025,10.9858261,-74.7901146,"Cra. 44 #50-134, Nte. Centro Historico, Barranquilla, Atlántico, Colombia"
TIENDA D1 BARRANQUILLA LA 93,BARRANQUILLA,744180,2019/09/06,ACTIVA,2025/03/20,2025,11.007061,-74.82589589999999,"Cl. 93 #49 C - 42, Riomar, Barranquilla, Atlántico, Colombia"
TIENDA D1 BARRANQUILLA LA CHINITA,BARRANQUILLA,736015,2019/06/05,ACTIVA,2025/03/20,2025,10.9561742,-74.7804934,"Cl. 26 #19-04, Sur Orient, Barranquilla, Atlántico, Colombia"
TIENDA D1 BARRANQUILLA LA CONCEPCION,BARRANQUILLA,733033,2019/04/30,ACTIVA,2025/03/20,2025,11.0063794,-74.7933394,"Cl 72 #66-139, La Concepción, Barranquilla, Atlántico, Colombia"
TIENDA D1 BARRANQUILLA LA PRADERA,BARRANQUILLA,776533,2020/12/07,ACTIVA,2025/03/20,2025,10.9764819,-74.83659,"Cl. 111 #29-115, Suroccidente, Barranquilla, Atlántico, Colombia"
TIENDA D1 BARRANQUILLA LA VICTORIA,BARRANQUILLA,756013,2020/02/07,ACTIVA,2025/03/20,2025,4.5501775,-74.0923044,"Cl. 40a Sur #4-23, Bogotá, Colombia"
TIENDA D1 BARRANQUILLA LAS AMERICAS,BARRANQUILLA,820533,2021/10/08,ACTIVA,2025/03/20,2025,10.9366656,-74.81607249999999,"Cl. 53a #2-88, Metropolitana, Barranquilla, Atlántico, Colombia"
TIENDA D1 BARRANQUILLA LAS FLORES,BARRANQUILLA,748986,2019/11/06,ACTIVA,2025/03/20,2025,11.0393478,-74.8251878,"Riomar, Barranquilla, Atlántico, Colombia"
TIENDA D1 BARRANQUILLA LAS MERCEDES,BARRANQUILLA,750642,2019/11/26,ACTIVA,2025/03/20,2025,10.9792098,-74.8139471,"Cra. 27 #73c23, Suroccidente, Barranquilla, Atlántico, Colombia"
TIENDA D1 BARRANQUILLA LAS NIEVES,BARRANQUILLA,774245,2020/11/10,ACTIVA,2025/03/20,2025,10.9561742,-74.7804934,"Cl. 26 #19-04, Sur Orient, Barranquilla, Atlántico, Colombia"
TIENDA D1 BARRANQUILLA MACARENA,BARRANQUILLA,795920,2021/07/12,ACTIVA,2025/03/20,2025,10.9942164,-74.81463640000001,"Cra. 42F #79-38, Nte. Centro Historico, Barranquilla, Atlántico, Colombia"
TIENDA D1 BARRANQUILLA MALVINAS,BARRANQUILLA,790540,2021/05/12,CANCELADA,2024/03/01,2024,4.7483333,-74.0582385,"Cra. 56 #165b-2, Bogotá, Colombia"
TIENDA D1 BARRANQUILLA METROCENTRO,BARRANQUILLA,852465,2022/10/11,ACTIVA,2025/03/20,2025,10.9256543,-74.8144401,"Cl 51B #9 Sur-12, Metropolitana, Barranquilla, Atlántico, Colombia"
TIENDA D1 BARRANQUILLA METROPOLIS CRA 43,BARRANQUILLA,881792,2023/12/04,ACTIVA,2025/03/20,2025,10.9979654,-74.8198036,"Av. 20 de Julio #82-209, Nte. Centro Historico, Barranquilla, Atlántico, Colombia"
TIENDA D1 BARRANQUILLA MIRAMAR,BARRANQUILLA,904095,2024/11/22,ACTIVA,2025/03/20,2025,11.0069948,-74.8411005,"Cl. 110 #N° 43 508, Nte. Centro Historico, Barranquilla, Atlántico, Colombia"
TIENDA D1 BARRANQUILLA MISS UNIVERSO,BARRANQUILLA,782204,2021/02/15,ACTIVA,2025/03/20,2025,11.007061,-74.82589589999999,"Cl. 93 #49 C - 42, Riomar, Barranquilla, Atlántico, Colombia"
TIENDA D1 BARRANQUILLA MURILLO 21,BARRANQUILLA,763237,2020/07/14,ACTIVA,2025/03/20,2025,10.9619384,-74.7930112,"Cl. 45 #2118, Sur Orient, Barranquilla, Atlántico, Colombia"
TIENDA D1 BARRANQUILLA OLAYA,BARRANQUILLA,778409,2021/01/13,ACTIVA,2025/03/20,2025,10.982045,-74.81067709999999,"Cl. 71 #32-1, Suroccidente, Barranquilla, Atlántico, Colombia"
TIENDA D1 BARRANQUILLA PARAISO 80,BARRANQUILLA,775254,2020/11/23,ACTIVA,2025/03/20,2025,11.0195805,-74.80412439999999,"Cl. 80 #75-150, Riomar, Barranquilla, Atlántico, Colombia"
TIENDA D1 BARRANQUILLA PARQUE CENTRAL,BARRANQUILLA,825267,2021/12/07,ACTIVA,2025/03/20,2025,10.9858261,-74.7901146,"Cra. 44 #50-134, Nte. Centro Historico, Barranquilla, Atlántico, Colombia"
TIENDA D1 BARRANQUILLA PIES DESCALZOS,BARRANQUILLA,749442,2019/11/12,ACTIVA,2025/03/20,2025,11.0009734,-74.797202,"Cra. 59 #70-45, Nte. Centro Historico, Barranquilla, Atlántico, Colombia"
TIENDA D1 BARRANQUILLA PLAZA NORTE,BARRANQUILLA,732595,2019/04/25,ACTIVA,2025/03/20,2025,11.017752,-74.814386,"Cra. 65 #86-191, Riomar, Barranquilla, Atlántico, Colombia"
TIENDA D1 BARRANQUILLA POR FIN,BARRANQUILLA,748987,2019/11/06,ACTIVA,2025/03/20,2025,10.9769059,-74.8292146,"Cra. 27 #85-1, Suroccidente, Barranquilla, Atlántico, Colombia"
TIENDA D1 BARRANQUILLA PORTAL,BARRANQUILLA,741376,2019/08/06,CANCELADA,2019/08/06,2019,10.9897256,-74.7885251,"Cl. 53 #46-192, Nte. Centro Historico, Barranquilla, Atlántico, Colombia"
TIENDA D1 BARRANQUILLA PRADO 59,BARRANQUILLA,771133,2020/10/08,ACTIVA,2025/03/20,2025,11.0009734,-74.797202,"Cra. 59 #70-45, Nte. Centro Historico, Barranquilla, Atlántico, Colombia"
TIENDA D1 BARRANQUILLA PUMAREJO,BARRANQUILLA,755992,2020/02/07,ACTIVA,2025/03/20,2025,10.968444,-74.8030373,"Cra 21B #60, Suroccidente, Barranquilla, Atlántico, Colombia"
TIENDA D1 BARRANQUILLA REBOLO,BARRANQUILLA,732592,2019/04/25,CANCELADA,2024/03/01,2024,10.9659804,-74.77531379999999,"Cra. 29 #17-02, Sur Orient, Barranquilla, Atlántico, Colombia"
TIENDA D1 BARRANQUILLA RIOMAR,BARRANQUILLA,818234,2021/09/13,ACTIVA,2025/03/20,2025,11.0186486,-74.82227,"Cra. 64 #96-119, Riomar, Barranquilla, Atlántico, Colombia"
TIENDA D1 BARRANQUILLA SAN ENRIQUE,BARRANQUILLA,788216,2021/04/15,ACTIVA,2025/03/20,2025,10.9701206,-74.8295157,"Cra. 21 #86-2 a 86-180, Barranquilla, Atlántico, Colombia"
TIENDA D1 BARRANQUILLA SAN FELIPE,BARRANQUILLA,765410,2020/08/12,ACTIVA,2025/03/20,2025,10.9721225,-74.8105799,"Cl. 70c #23C28, Suroccidente, Barranquilla, Atlántico, Colombia"
TIENDA D1 BARRANQUILLA SAN JOSE,BARRANQUILLA,748985,2019/11/06,ACTIVA,2025/03/20,2025,10.9641042,-74.7885862,"Cra. 23 #39-31, Sur Orient, Barranquilla, Atlántico, Colombia"
TIENDA D1 BARRANQUILLA SAN PEDRO,BARRANQUILLA,781220,2021/02/05,ACTIVA,2025/03/20,2025,10.9641042,-74.7885862,"Cra. 23 #39-31, Sur Orient, Barranquilla, Atlántico, Colombia"
TIENDA D1 BARRANQUILLA SANTA HELENA,BARRANQUILLA,820535,2021/10/08,ACTIVA,2025/03/20,2025,4.7498182,-74.05914400000002,"Cl 167 #5844 #58- a, Bogotá, Colombia"
TIENDA D1 BARRANQUILLA SANTO DOMINGO,BARRANQUILLA,840955,2022/06/07,ACTIVA,2025/03/20,2025,4.7498182,-74.05914400000002,"Cl 167 #5844 #58- a, Bogotá, Colombia"
TIENDA D1 BARRANQUILLA SIMON BOLIVAR,BARRANQUILLA,759553,2020/03/19,ACTIVA,2025/03/20,2025,10.9370229,-74.7802434,"Carrera 1F # 19 - 16, Barranquilla, Soledad, Atlántico, Colombia"
TIENDA D1 BARRANQUILLA SOURDIS,BARRANQUILLA,759958,2020/05/11,ACTIVA,2025/03/20,2025,10.958862,-74.8253455,"CALLE 87 con, Cra. 9g, Barranquilla, Atlántico, Colombia"
TIENDA D1 BARRANQUILLA SURI SALCEDO,BARRANQUILLA,829722,2022/02/07,ACTIVA,2025/03/20,2025,,,
TIENDA D1 BARRANQUILLA TABOR,BARRANQUILLA,825272,2021/12/07,ACTIVA,2025/03/20,2025,10.9951917,-74.82283369999999,"Cl. 84 #42D-48, Nte. Centro Historico, Barranquilla, Atlántico, Colombia"
TIENDA D1 BARRANQUILLA UNIAUTONOMA,BARRANQUILLA,784633,2021/03/08,CANCELADA,2024/03/01,2024,11.0051228,-74.8228531,"Cra. 49c #88-24, Riomar, Barranquilla, Atlántico, Colombia"
TIENDA D1 BARRANQUILLA VIA 40,BARRANQUILLA,749444,2019/11/12,ACTIVA,2025/03/20,2025,10.9829325,-74.78181959999999,"Cl. 40 #43-95, Nte. Centro Historico, Barranquilla, Atlántico, Colombia"
TIENDA D1 BARRANQUILLA VILLA SANTOS,BARRANQUILLA,849419,2022/09/08,ACTIVA,2025/03/20,2025,11.0142768,-74.8365953,"Cl. 106 #50-67, Riomar, Barranquilla, Atlántico, Colombia"
TIENDA D1 BARRANQUILLA VILLA TAREL,BARRANQUILLA,799966,2021/08/23,ACTIVA,2025/03/20,2025,11.0063794,-74.7933394,"Cl 72 #66-139, La Concepción, Barranquilla, Atlántico, Colombia"
TIENDA D1 BARRANQUILLA VILLAS DEL RECREO,BARRANQUILLA,832965,2022/03/08,CANCELADA,2024/03/01,2024,10.9835627,-74.8037976,"Cra. 38 #6844, El Recreo, Barranquilla, Atlántico, Colombia"
TIENDA D1 BARRANQUILLA VILLATE,BARRANQUILLA,826866,2022/01/11,ACTIVA,2025/03/20,2025,10.9631968,-74.8096015,"Cra. 15 #64-55, El Valle, Barranquilla, Atlántico, Colombia"
TIENDA D1 BARRIO COLOMBIA,BARRANCABERMEJA,113963,2018/10/08,ACTIVA,2025/03/19,2025,4.6588261,-74.0664594,"Cra 20 #70-05, Bogotá, Colombia"
TIENDA D1 BARRIO CRISTOBAL,MEDELLIN PARA ANTIOQUIA,49418702,2010/05/21,CANCELADA,2020/07/02,2020,6.2788032,-75.6332716,"Cl. 62 #127-138, Nazaret, San Cristóbal, Medellín, Antioquia, Colombia"
TIENDA D1 BARRIO CRISTOBAL 2,MEDELLIN PARA ANTIOQUIA,65512602,2018/03/23,ACTIVA,2025/03/21,2025,6.2788032,-75.6332716,"Cl. 62 #127-138, Nazaret, San Cristóbal, Medellín, Antioquia, Colombia"
TIENDA D1 BARRIO ORTIZ,URABA,94552,2019/06/18,ACTIVA,2025/03/18,2025,4.7092331,-74.1259151,"Cra. 111 #72a-01, Bogotá, Colombia"
TIENDA D1 BARRIO PEREZ,MEDELLIN PARA ANTIOQUIA,62435502,2016/12/20,ACTIVA,2025/03/21,2025,6.3243676,-75.5478565,"Cra. 45 #37-64, Calle Vieja, Bello, Antioquia, Colombia"
TIENDA D1 BARRIO SANTANDER,MEDELLIN PARA ANTIOQUIA,70258502,2020/05/20,ACTIVA,2025/03/21,2025,4.7483333,-74.0582385,"Cra. 56 #165b-2, Bogotá, Colombia"
TIENDA D1 BARRIOS UNIDOS,BOGOTA,2656176,2016/02/18,ACTIVA,2025/03/07,2025,4.676186,-74.0812746,"Cra. 64 #74-36, Bogotá, Colombia"
TIENDA D1 BARRO BLANCO,BUCARAMANGA,9000439711,2019/08/12,ACTIVA,2025/03/21,2025,6.1532202,-75.4057411,"Rionegro, Antioquia, Colombia"
TIENDA D1 BCH 52,BOGOTA,3251131,2020/06/19,ACTIVA,2025/03/07,2025,4.7314422,-74.0502568,"Auto. Norte #14929, Bogotá, Colombia"
TIENDA D1 BECERRIL,VALLEDUPAR,169619,2020/03/12,ACTIVA,2025/03/25,2025,9.7015392,-73.2810348,"Cra. 5 #11-60, Becerril, Cesar, Colombia"
TIENDA D1 BELALCAZAR,MANIZALES,209831,2020/10/05,ACTIVA,2025/03/19,2025,4.7483333,-74.0582385,"Cra. 56 #165b-2, Bogotá, Colombia"
TIENDA D1 BELEN,BOGOTA,3451110,2021/11/05,ACTIVA,2025/03/07,2025,4.5899917,-74.0724973,"Cl. 6 #0-44, este, Bogotá, Colombia"
TIENDA D1 BELEN,CUCUTA,405075,2021/10/12,ACTIVA,2025/03/19,2025,4.5899917,-74.0724973,"Cl. 6 #0-44, este, Bogotá, Colombia"
TIENDA D1 BELEN,DUITAMA,91353,2018/07/30,ACTIVA,2025/03/04,2025,4.5899917,-74.0724973,"Cl. 6 #0-44, este, Bogotá, Colombia"
TIENDA D1 BELEN ALTAVISTA,MEDELLIN PARA ANTIOQUIA,81364502,2025/03/05,ACTIVA,2025/03/05,2025,6.222623899999999,-75.61224899999999,"Cl. 18 #90119, Medellín, Altavista, Medellín, Antioquia, Colombia"
TIENDA D1 BELEN DE BAJIRA,CHOCÓ,6180902,2021/11/26,ACTIVA,2025/03/21,2025,6.2282226,-75.5919741,"Cl. 26A #70-21, Medellín, Belén, Medellín, Antioquia, Colombia"
TIENDA D1 BELEN DE UMBRIA,PEREIRA,18161435,2019/02/12,ACTIVA,2025/03/19,2025,5.2030082,-75.8659824,"Cra. 9 #10, Belén de Umbría, Risaralda, Colombia"
TIENDA D1 BELEN MOLINOS,MEDELLIN PARA ANTIOQUIA,79455202,2024/05/03,ACTIVA,2025/03/21,2025,6.232125900000001,-75.60051779999999,"Belen La Palma, Cl. 30A #80-58, Medellín, Belén, Medellín, Antioquia, Colombia"
TIENDA D1 BELEN MONASTERIO,MEDELLIN PARA ANTIOQUIA,81761202,2025/04/25,ACTIVA,2025/04/25,2025,6.205390599999999,-75.60216609999999,"Cl. 6 Sur #79-270, El Rincon, Medellín, Belén, Medellín, Antioquia, Colombia"
TIENDA D1 BELEN SERRANIA,MEDELLIN PARA ANTIOQUIA,81199102,2025/02/13,ACTIVA,2025/02/13,2025,6.213209699999999,-75.601796,"Cra. 78b #2a-52, Medellín, Belén, Medellín, Antioquia, Colombia"
TIENDA D1 BELL CABAÑITAS 2,MEDELLIN PARA ANTIOQUIA,74984602,2022/06/15,ACTIVA,2025/03/21,2025,6.3149636,-75.55834349999999,"Cl. 26B #51-15, Vegas De La Cabana, Bello, Antioquia, Colombia"
TIENDA D1 BELL EL CARRETERO,MEDELLIN PARA ANTIOQUIA,75783602,2022/10/07,ACTIVA,2025/03/21,2025,6.3425088,-75.562196,"Tv. 56A #55A-43, El Cairo, Bello, Antioquia, Colombia"
TIENDA D1 BELL GUASIMALITO,MEDELLIN PARA ANTIOQUIA,74718602,2022/05/10,ACTIVA,2025/03/21,2025,6.3464008,-75.5214354,"Dg. 52 #12-19, Bello, Antioquia, Colombia"
TIENDA D1 BELL JERUSALEN,MEDELLIN PARA ANTIOQUIA,72448502,2021/06/08,ACTIVA,2025/03/21,2025,4.7498182,-74.05914400000002,"Cl 167 #5844 #58- a, Bogotá, Colombia"
TIENDA D1 BELL LA CAMILA,MEDELLIN PARA ANTIOQUIA,73504302,2021/11/08,ACTIVA,2025/03/21,2025,6.3263614,-75.5404937,"Estacion Primera, Bello, Antioquia, Colombia"
TIENDA D1 BELL NIQUIA 4,MEDELLIN PARA ANTIOQUIA,75783702,2022/10/07,ACTIVA,2025/03/21,2025,6.339705200000001,-75.54949859999999,"Dg. 56 #42-162, Ciudad Niquia, Bello, Antioquia, Colombia"
TIENDA D1 BELL PACHELLY,MEDELLIN PARA ANTIOQUIA,76243502,2023/01/06,ACTIVA,2025/03/21,2025,6.3481884,-75.56335709999999,"Cl. 68 #59-49, Ducado, Bello, Antioquia, Colombia"
TIENDA D1 BELL PLAZA BELVERDE,MEDELLIN PARA ANTIOQUIA,74984102,2022/06/15,ACTIVA,2025/03/21,2025,6.3501657,-75.5694407,"San Gabriel, Bello, Antioquia, Colombia"
TIENDA D1 BELL RIACHUELOS,MEDELLIN PARA ANTIOQUIA,72848902,2021/08/10,ACTIVA,2025/03/21,2025,6.3362823,-75.57081649999999,"Cl 52B #65 - 08, Riachuelos, Bello, Antioquia, Colombia"
TIENDA D1 BELL SAN FELIX,MEDELLIN PARA ANTIOQUIA,72501202,2021/06/17,ACTIVA,2025/03/21,2025,6.3501657,-75.5694407,"San Gabriel, Bello, Antioquia, Colombia"
TIENDA D1 BELLA SUIZA 127,BOGOTA,3830323,2024/06/07,ACTIVA,2025/03/07,2025,4.7042796,-74.0326031,"Ak 9 #127-58, Bogotá, Colombia"
TIENDA D1 BELLA TERRA,OCANA,40004,2022/01/18,ACTIVA,2025/03/19,2025,4.7497428,-74.07344320000001,"Tv. 77 #16280 a 162-82, Bogotá, Colombia"
TIENDA D1 BELLA VISTA 68,BOGOTA,3837388,2024/06/25,ACTIVA,2025/03/07,2025,4.6745703,-74.08806659999999,"Cl. 68 #68 - 24, Bogotá, Colombia"
TIENDA D1 BELLO 1,MEDELLIN PARA ANTIOQUIA,49109302,2010/03/24,ACTIVA,2025/03/21,2025,6.3378811,-75.5560946,"Cl. 54 #4671, Las Granias, Bello, Antioquia, Colombia"
TIENDA D1 BELLO AGUA PEÑA,MEDELLIN PARA ANTIOQUIA,80291002,2024/09/09,ACTIVA,2025/03/21,2025,6.338093499999999,-75.5590828,"Cra. 50 # 54 - 59, Centro, Bello, Antioquia, Colombia"
TIENDA D1 BELLO BARRIO MESA,MEDELLIN PARA ANTIOQUIA,53790602,2012/10/09,ACTIVA,2025/03/21,2025,6.3400979,-75.5616915,"Cl. 58 #54-61 d1, El Cairo, Bello, Antioquia, Colombia"
TIENDA D1 BELLO BARRIO OBRERO,MEDELLIN PARA ANTIOQUIA,52953402,2012/05/09,ACTIVA,2025/03/21,2025,6.324019499999999,-75.55817329999999,"Cra. 50a, Obrero, Bello, Antioquia, Colombia"
TIENDA D1 BELLO CENTRO,MEDELLIN PARA ANTIOQUIA,63772502,2017/06/23,ACTIVA,2025/03/21,2025,6.338093499999999,-75.5590828,"Cra. 50 # 54 - 59, Centro, Bello, Antioquia, Colombia"
TIENDA D1 BELLO CUMBRE OBRA 2000,MEDELLIN PARA ANTIOQUIA,68552802,2019/06/28,ACTIVA,2025/03/21,2025,6.3384811,-75.5679224,"Cra. 63 # 54 - 2, Altos Del Porvenir, Bello, Antioquia, Colombia"
TIENDA D1 BELLO EL ANGEL,MEDELLIN PARA ANTIOQUIA,78402002,2023/11/17,ACTIVA,2025/03/21,2025,6.3384811,-75.5679224,"Cra. 63 # 54 - 2, Altos Del Porvenir, Bello, Antioquia, Colombia"
TIENDA D1 BELLO EL MIRADOR,MEDELLIN PARA ANTIOQUIA,79974802,2024/07/22,ACTIVA,2025/03/21,2025,6.3434944,-75.55957269999999,"Cra. 50 #63a-32 a 63a-150, Bello, Colombia"
TIENDA D1 BELLO EL PORVENIR,MEDELLIN PARA ANTIOQUIA,78541302,2023/12/18,ACTIVA,2025/03/21,2025,6.3388133,-75.5662413,"Cra. 58A #53-151, Altos Del Porvenir, Bello, Antioquia, Colombia"
TIENDA D1 BELLO FABRICATO,MEDELLIN PARA ANTIOQUIA,78908702,2024/02/20,ACTIVA,2025/03/21,2025,6.3224648,-75.5572962,"Cl. 35 #50-58, Obrero, Bello, Antioquia, Colombia"
TIENDA D1 BELLO LA 49,MEDELLIN PARA ANTIOQUIA,81654502,2025/04/09,ACTIVA,2025/04/09,2025,6.3243676,-75.5478565,"Cra. 45 #37-64, Calle Vieja, Bello, Antioquia, Colombia"
TIENDA D1 BELLO LA GABRIELA,MEDELLIN PARA ANTIOQUIA,69438502,2019/11/22,ACTIVA,2025/03/21,2025,6.3243676,-75.5478565,"Cra. 45 #37-64, Calle Vieja, Bello, Antioquia, Colombia"
TIENDA D1 BELLO MARCO FIDEL,MEDELLIN PARA ANTIOQUIA,52944902,2012/05/08,ACTIVA,2025/03/21,2025,6.3351695,-75.5598598,"Cl. 51 #54-26, Machester, Bello, Antioquia, Colombia"
TIENDA D1 BELLO NIQUIA,MEDELLIN PARA ANTIOQUIA,50226702,2010/11/17,ACTIVA,2025/03/21,2025,6.3368125,-75.55018969999999,"Av. 43 #51-55 a 51-1, Ciudad Niquia, Bello, Antioquia, Colombia"
TIENDA D1 BELLO PARQUE,MEDELLIN PARA ANTIOQUIA,50277902,2010/12/01,ACTIVA,2025/03/21,2025,6.3384811,-75.5679224,"Cra. 63 # 54 - 2, Altos Del Porvenir, Bello, Antioquia, Colombia"
TIENDA D1 BELLO PLAZA,MEDELLIN PARA ANTIOQUIA,71050402,2020/10/19,ACTIVA,2025/03/21,2025,6.3384811,-75.5679224,"Cra. 63 # 54 - 2, Altos Del Porvenir, Bello, Antioquia, Colombia"
TIENDA D1 BENJAMIN HERRERA,BOGOTA,2957303,2018/05/10,ACTIVA,2025/03/07,2025,4.6540699,-74.0758578,"Cra. 28 # 63 B - 51, Bogotá, D.C, Bogotá, Colombia"
TIENDA D1 BICENTENARIO,MEDELLIN PARA ANTIOQUIA,69672402,2020/01/22,ACTIVA,2025/03/21,2025,10.422607,-75.4472236,"Cartagena de Indias, Provincia de Cartagena, Bolívar, Colombia"
TIENDA D1 BOCONO,CUCUTA,372621,2020/06/19,ACTIVA,2025/03/03,2025,7.8571206,-72.4660983,"HACIENDA SAN PEDRO, Vía Bocono #LOTE 2-A, Cúcuta, Villa Del Rosario, Norte de Santander, Colombia"
TIENDA D1 BOG ALTAMIRA,BOGOTA,3387971,2021/06/15,ACTIVA,2025/03/07,2025,4.7498182,-74.05914400000002,"Cl 167 #5844 #58- a, Bogotá, Colombia"
TIENDA D1 BOG ANTONIA SANTOS,BOGOTA,3812542,2024/04/23,ACTIVA,2025/03/07,2025,4.7018406,-74.1247078,"Zona 4, Bogotá, Colombia"
TIENDA D1 BOG AUTOPISTA SUR,BOGOTA,3781211,2024/02/13,ACTIVA,2025/03/07,2025,4.704457,-74.0547875,"Auto. Norte #12375, Bogotá, Colombia"
TIENDA D1 BOG AV BOYACA,BOGOTA,3836776,2024/06/24,ACTIVA,2025/03/07,2025,4.7242137,-74.0722187,"Cra. 59d #131-25, Suba, Bogotá, Cundinamarca, Colombia"
TIENDA D1 BOG BELMIRA,BOGOTA,2306359,2013/03/22,ACTIVA,2025/03/07,2025,4.7179325,-74.0327679,"Cl. 140 #92 - 30, Bogotá, Colombia"
TIENDA D1 BOG BOG DANUBIO,BOGOTA,3750168,2023/11/07,ACTIVA,2025/03/07,2025,4.5112952,-74.0989919,"CL 79 Sur - KR 9 Este, Bogotá, Colombia"
TIENDA D1 BOG BOLONIA SUR,BOGOTA,3483820,2022/02/15,ACTIVA,2025/03/07,2025,4.6945339,-74.1070317,"Bogotá, Colombia"
TIENDA D1 BOG BOSA LAURELES,BOGOTA,3396139,2021/07/06,ACTIVA,2025/03/07,2025,4.610112,-74.1955905,"Cra. 81 #71-16, Bogotá, Colombia"
TIENDA D1 BOG BOSA PARQUES,BOGOTA,3701772,2023/07/07,ACTIVA,2025/03/07,2025,4.6283809,-74.20895039999999,"Cl. 80 Bis Sur #94, Bogotá, Colombia"
TIENDA D1 BOG BOSA PLAZA,BOGOTA,3763839,2024/01/09,ACTIVA,2025/03/07,2025,4.607048799999999,-74.18581549999999,"Cl. 65 Sur #80a-06, Bogotá, Colombia"
TIENDA D1 BOG BOSA SAN PEDRO,BOGOTA,3311879,2020/11/23,ACTIVA,2025/03/07,2025,4.6220478,-74.19192439999999,"Cl. 63 Sur 87c-1, Bogotá, Colombia"
TIENDA D1 BOG BRAZUELOS,BOGOTA,3376109,2021/05/11,ACTIVA,2025/03/07,2025,4.4916744,-74.1187482,"Cl. 112 Sur #10 - 82, Bogotá, Colombia"
TIENDA D1 BOG CAMPO ALTO,BOGOTA,3452980,2021/11/10,ACTIVA,2025/03/07,2025,4.6836826,-74.0624916,"Ak 50 #94c18, Barrios Unidos, Bogotá, Cundinamarca, Colombia"
TIENDA D1 BOG CANADA,BOGOTA,3850274,2024/07/25,ACTIVA,2025/03/07,2025,4.5340417,-74.0857338,"Dg. 50 Sur #49, Bogotá, Colombia"
TIENDA D1 BOG CASA DE TEJA,BOGOTA,3300666,2020/10/23,ACTIVA,2025/03/07,2025,4.5410882,-74.1374062,"Cl. 76 Sur #1732, Bogotá, Colombia"
TIENDA D1 BOG CC CIUDAD TUNAL,BOGOTA,3687700,2023/06/01,ACTIVA,2025/03/07,2025,4.5779272,-74.1303211,"Bogotá, Colombia"
TIENDA D1 BOG CC PASEO VILLA DEL RIO,BOGOTA,3927642,2025/02/26,ACTIVA,2025/02/26,2025,4.5980047,-74.15280369999999,"Dg. 57c Sur #62-60, Bogotá, Colombia"
TIENDA D1 BOG CIUDADELA SUCRE,BOGOTA,3972155,2025/06/09,ACTIVA,2025/06/09,2025,4.5878325,-74.18973249999999,"Cl. 48 #3-2 a 3-86, Soacha, Cundinamarca, Colombia"
TIENDA D1 BOG EL AMPARO,BOGOTA,3803292,2024/04/02,ACTIVA,2025/03/07,2025,4.6306289,-74.1673852,"Av Ciudad de Cali #41a Sur-66, Bogotá, Colombia"
TIENDA D1 BOG EL INGLES,BOGOTA,3466562,2022/01/11,ACTIVA,2025/03/07,2025,4.5843756,-74.1231013,"Bogotá, Colombia"
TIENDA D1 BOG EL TEJAR,BOGOTA,3452979,2021/11/10,ACTIVA,2025/03/07,2025,4.6065768,-74.1276654,"Cl. 27 Sur #52b-2 a 52b-52, Bogotá, Colombia"
TIENDA D1 BOG ESTRELLA,BOGOTA,3581775,2022/09/12,ACTIVA,2025/03/07,2025,4.6221238,-74.07711669999999,"Kr 24 #262, Bogotá, Colombia"
TIENDA D1 BOG FATIMA,BOGOTA,3758191,2023/12/04,ACTIVA,2025/03/07,2025,4.5859951,-74.14077320000001,"Tunjuelito, Bogotá, Colombia"
TIENDA D1 BOG GUACAMAYAS,BOGOTA,3438926,2021/10/06,ACTIVA,2025/03/07,2025,4.5517756,-74.09678389999999,"Dg. 39 Sur #1-31, Bogotá, Colombia"
TIENDA D1 BOG KENNEDY CENTRAL,BOGOTA,3930341,2025/03/04,ACTIVA,2025/03/04,2025,4.6221147,-74.1547835,"a 78j-45, Cl. 39 Sur #78j-1, Bogotá, Colombia"
TIENDA D1 BOG LA GLORIA,BOGOTA,3742622,2023/10/13,ACTIVA,2025/03/07,2025,4.7498182,-74.05914400000002,"Cl 167 #5844 #58- a, Bogotá, Colombia"
TIENDA D1 BOG LA VICTORIA,BOGOTA,3417913,2021/08/24,ACTIVA,2025/03/07,2025,4.7314422,-74.0502568,"Auto. Norte #14929, Bogotá, Colombia"
TIENDA D1 BOG LAS DELICIAS,BOGOTA,3862607,2024/08/27,ACTIVA,2025/03/07,2025,4.7570497,-74.0539646,"Cl. 174a #54C-28, Bogotá, Colombia"
TIENDA D1 BOG LOMAS,BOGOTA,3742623,2023/10/13,ACTIVA,2025/03/07,2025,4.743219000000001,-74.0387026,"Cl. 164 #16b-1, Bogotá, Colombia"
TIENDA D1 BOG LOS JUNCOS,BOGOTA,3122089,2019/06/05,ACTIVA,2025/03/07,2025,4.728526,-74.0409306,"Ak. 15 #14638, Bogotá, Colombia"
TIENDA D1 BOG LUCERO BAJO,BOGOTA,3367482,2021/04/16,ACTIVA,2025/03/07,2025,4.5543068,-74.1393472,"Dg. 64a Bis Sur #17C1, Bogotá, Colombia"
TIENDA D1 BOG MARCO FIDEL SUAREZ,BOGOTA,3581768,2022/09/12,ACTIVA,2025/03/07,2025,4.5687618,-74.1233249,"Tv. 16h #46-42, Bogotá, Colombia"
TIENDA D1 BOG MARYLAND,BOGOTA,3703772,2023/07/12,ACTIVA,2025/03/07,2025,4.743219000000001,-74.0387026,"Cl. 164 #16b-1, Bogotá, Colombia"
TIENDA D1 BOG MOLINOS DEL SUR,BOGOTA,3701767,2023/07/07,ACTIVA,2025/03/07,2025,4.5558453,-74.11974889999999,"Cra. 6a #49G-23, Rafael Uribe Uribe, Bogotá, Colombia"
TIENDA D1 BOG NEVADA,BOGOTA,3969481,2025/06/03,ACTIVA,2025/06/03,2025,4.702429299999999,-74.100691,"Cra. 85a #78-60, Bogotá, Colombia"
TIENDA D1 BOG RINCON GALICIA,BOGOTA,3862614,2024/08/27,ACTIVA,2025/03/07,2025,4.5877637,-74.1725593,"Cdad. Bolívar, Bogotá, Colombia"
TIENDA D1 BOG RONDA SAN FRANCISCO,BOGOTA,3850280,2024/07/25,ACTIVA,2025/03/07,2025,4.9759661,-74.2895735,"Cl. 4 #No 8-99, San Francisco, Cundinamarca, Colombia"
TIENDA D1 BOG ROSALES,BOGOTA,3854079,2024/08/05,ACTIVA,2025/03/07,2025,4.650263199999999,-74.0557152,"Cra. 4 #67-87, Bogotá, Colombia"
TIENDA D1 BOG SAN BLAS,BOGOTA,3237617,2020/04/29,ACTIVA,2025/03/07,2025,4.5633384,-74.0866644,"Cra. 7 Este #27-42, Bogotá, Colombia"
TIENDA D1 BOG SAN CIPRIANO,BOGOTA,2247462,2012/08/24,ACTIVA,2025/03/07,2025,4.7498182,-74.05914400000002,"Cl 167 #5844 #58- a, Bogotá, Colombia"
TIENDA D1 BOG SAN CRISTOBAL,BOGOTA,2284055,2013/01/11,ACTIVA,2025/03/07,2025,4.7378605,-74.02592109999999,"Calle 162 # a 7f-, Cra. 98 #192, Bogotá, Colombia"
TIENDA D1 BOG SAN JOAQUIN,BOGOTA,3984500,2025/07/10,ACTIVA,2025/07/10,2025,4.7483333,-74.0582385,"Cra. 56 #165b-2, Bogotá, Colombia"
TIENDA D1 BOG SAN VICENTE FERR,BOGOTA,3847411,2024/07/19,ACTIVA,2025/03/07,2025,4.583671799999999,-74.1386393,"Cra. 30 #75-33 Piso 2, Bogotá, Colombia"
TIENDA D1 BOG SANTA CECILIA,BOGOTA,3151887,2019/08/13,CANCELADA,/  /,2019,4.7369042,-74.022396,"Cl. 162a #5b-19 a 5b-1, Bogotá, Colombia"
TIENDA D1 BOG SANTA LIBRADA,BOGOTA,3329190,2021/01/28,ACTIVA,2025/03/07,2025,4.514934,-74.1145222,"Cl 75 Sur #10-61, Bogotá, Colombia"
TIENDA D1 BOG SEVILLANA,BOGOTA,3452981,2021/11/10,ACTIVA,2025/03/07,2025,4.600047,-74.14408619999999,"Av. Boyacá #43c Sur4, Bogotá, Colombia"
TIENDA D1 BOG SURTIFRUVER 164,BOGOTA,3091259,2019/03/28,ACTIVA,2025/03/07,2025,4.743219000000001,-74.0387026,"Cl. 164 #16b-1, Bogotá, Colombia"
TIENDA D1 BOG TREBOLI,BOGOTA,3850272,2024/07/25,ACTIVA,2025/03/07,2025,4.6928877,-74.0506765,"Cra 19 #106 08, Bogotá, Colombia"
TIENDA D1 BOG USME METRO 136,BOGOTA,3895195,2024/11/27,ACTIVA,2025/03/07,2025,4.544341,-74.1207292,"Ak. 1 #KR 56, Usme, Bogotá, Colombia"
TIENDA D1 BOG VENECIA OCCIDENTAL,BOGOTA,3728724,2023/09/11,ACTIVA,2025/03/07,2025,4.591610999999999,-74.139515,"Dg. 49 Sur #53-85, Bogotá, Colombia"
TIENDA D1 BOG YOMASA LA SIERRA,BOGOTA,3311878,2020/11/23,ACTIVA,2025/03/07,2025,4.5092123,-74.1072611,"Cl. 81 Sur #4-24, Bogotá, Colombia"
TIENDA D1 BOGOTA 20 DE JULIO,BOGOTA,2740265,2016/10/04,ACTIVA,2025/03/07,2025,4.571538299999999,-74.0976148,"Cl. 27 Sur #9-29, Bogotá, Colombia"
TIENDA D1 BOGOTA ALPES,BOGOTA,3183897,2019/10/25,ACTIVA,2025/03/07,2025,4.7570497,-74.0539646,"Cl. 174a #54C-28, Bogotá, Colombia"
TIENDA D1 BOGOTA BOSA CENTRO,BOGOTA,2760051,2016/12/07,ACTIVA,2025/03/07,2025,4.607048799999999,-74.18581549999999,"Cl. 65 Sur #80a-06, Bogotá, Colombia"
TIENDA D1 BOGOTA BOSA LA ESPERANZA,BOGOTA,2912789,2018/02/01,ACTIVA,2025/03/07,2025,4.6112263,-74.2060238,"Cl. 80 Sur #79a6, Bogotá, Colombia"
TIENDA D1 BOGOTA BOSA LA ESTACION,BOGOTA,2908462,2018/01/23,ACTIVA,2025/03/07,2025,4.599994400000001,-74.1827019,"65 A SUR - 45, Cra. 77m, Bosa, Bogotá, D.C, Cundinamarca, Colombia"
TIENDA D1 BOGOTA CALLE 24 SUR,BOGOTA,2755509,2016/11/18,ACTIVA,2025/03/07,2025,4.5825223,-74.1165803,"Kr 24 #32A-05, Bogotá, Colombia"
TIENDA D1 BOGOTA CANDELARIA LA NUEVA,BOGOTA,3139978,2019/07/16,ACTIVA,2025/03/07,2025,4.5757829,-74.15459179999999,"Avenida, Cl. 68 Sur #46a-4, Bogotá, Colombia"
TIENDA D1 BOGOTA CASTILLA,BOGOTA,2836137,2017/07/04,ACTIVA,2025/03/07,2025,4.6376263,-74.1421282,"Cra. 78 #7d-33, Bogotá, Colombia"
TIENDA D1 BOGOTA CAYETANO,BOGOTA,2787781,2017/03/01,ACTIVA,2025/03/07,2025,4.727795500000001,-74.09411039999999,"Cra. 95a #129c-8, Bogotá, Colombia"
TIENDA D1 BOGOTÁ CHICALÁ,BOGOTA,2880196,2017/10/12,ACTIVA,2025/03/07,2025,4.6216001,-74.1779241,"Cra. 82B #53B-28, Bogotá, Colombia"
TIENDA D1 BOGOTA CHICO SUR,BOGOTA,3030582,2018/10/26,ACTIVA,2025/03/07,2025,4.5049718,-74.104524,"Bogotá, Colombia"
TIENDA D1 BOGOTA CIUDAD JARDIN SUR,BOGOTA,2740276,2016/10/04,ACTIVA,2025/03/07,2025,4.5804731,-74.0914142,"Cra. 10, Bogotá, Colombia"
TIENDA D1 BOGOTA CLARET,BOGOTA,2870254,2017/09/19,ACTIVA,2025/03/07,2025,4.582808,-74.1278501,"Tunjuelito, Bogotá, Colombia"
TIENDA D1 BOGOTA DINDALITO,BOGOTA,2857828,2017/08/22,ACTIVA,2025/03/07,2025,4.6432802,-74.17532390000001,"Cl. 42a Sur, Bogotá, Colombia"
TIENDA D1 BOGOTA GUSTAVO RESTREPO,BOGOTA,3280017,2020/09/04,ACTIVA,2025/03/07,2025,4.5782352,-74.1083663,"Cl. 27c Sur #91, Bogotá, Colombia"
TIENDA D1 BOGOTA JUAN REY,BOGOTA,3280021,2020/09/04,ACTIVA,2025/03/07,2025,4.5224209,-74.0895874,"Cl. 70 Sur #13b Este-1 a, Cra. 13b Este #65, Bogotá, Colombia"
TIENDA D1 BOGOTA LA CHUCUA,BOGOTA,3183898,2019/10/25,ACTIVA,2025/03/07,2025,4.6016916,-74.1468455,"Kennedy, Bogotá, Colombia"
TIENDA D1 BOGOTA LAS GRANJAS,BOGOTA,3604927,2022/11/08,ACTIVA,2025/03/07,2025,4.6982624,-74.0953767,"Cl. 79, Bogotá, Colombia"
TIENDA D1 BOGOTA MILAN,BOGOTA,3192716,2019/11/22,ACTIVA,2025/03/07,2025,4.7570497,-74.0539646,"Cl. 174a #54C-28, Bogotá, Colombia"
TIENDA D1 BOGOTA PERDOMO,BOGOTA,2784910,2017/02/23,ACTIVA,2025/03/07,2025,4.5867716,-74.1662944,"Cl. 64 Sur #71f-47, Bogotá, Colombia"
TIENDA D1 BOGOTA PLAZA NORTE,BOGOTA,3832749,2024/06/14,ACTIVA,2025/03/07,2025,4.7314422,-74.0502568,"Auto. Norte #14929, Bogotá, Colombia"
TIENDA D1 BOGOTA PUNTO 170,BOGOTA,3897346,2024/12/05,ACTIVA,2025/03/07,2025,4.750369099999999,-74.0434136,"Cl. 170 #21A-95, Bogotá, Colombia"
TIENDA D1 BOGOTA RAMAJAL,BOGOTA,3675817,2023/05/04,ACTIVA,2025/03/07,2025,4.7393766,-74.03019379999999,"Cra. 8g #162-40, Bogotá, Colombia"
TIENDA D1 BOGOTA RESTREPO BOMBEROS,BOGOTA,2755506,2016/11/18,ACTIVA,2025/03/07,2025,4.590354,-74.1081315,"Cra 27 # 18 - 79, Bogotá, Colombia"
TIENDA D1 BOGOTA SAN ANDRESITO,BOGOTA,2768776,2017/01/19,ACTIVA,2025/03/07,2025,4.6068712,-74.0898394,"Cra. 23 #10-13, Bogotá, Colombia"
TIENDA D1 BOGOTA SAN BENITO,BOGOTA,2768775,2017/01/19,ACTIVA,2025/03/07,2025,4.565798099999999,-74.134919,"Cl. 57 Sur #19-43, Bogotá, Colombia"
TIENDA D1 BOGOTA SAN CARLOS,BOGOTA,2760050,2016/12/07,ACTIVA,2025/03/07,2025,4.5652098,-74.1277497,"Tunjuelito, Bogotá, Colombia"
TIENDA D1 BOGOTA SAN ISIDRO,BOGOTA,2857832,2017/08/22,ACTIVA,2025/03/07,2025,4.7314422,-74.0502568,"Auto. Norte #14929, Bogotá, Colombia"
TIENDA D1 BOGOTA SAN JORGE,BOGOTA,2836115,2017/07/04,ACTIVA,2025/03/07,2025,4.570011,-74.1183084,"Cl. 43 Sur #14a-62, Bogotá, Colombia"
TIENDA D1 BOGOTA SAN PATRICIO,BOGOTA,2890763,2017/11/14,ACTIVA,2025/03/07,2025,4.6928877,-74.0506765,"Cra 19 #106 08, Bogotá, Colombia"
TIENDA D1 BOGOTA SANTA LUCIA,BOGOTA,2826644,2017/06/08,ACTIVA,2025/03/07,2025,4.5753974,-74.1255845,"Dg. 44b Sur #21-1 21-99 a, Bogotá, Colombia"
TIENDA D1 BOGOTA TEJAR,BOGOTA,2908450,2018/01/23,CANCELADA,/  /,2018,4.6065768,-74.1276654,"Cl. 27 Sur #52b-2 a 52b-52, Bogotá, Colombia"
TIENDA D1 BOGOTA TRINIDAD,BOGOTA,2761179,2016/12/14,ACTIVA,2025/03/07,2025,4.7483333,-74.0582385,"Cra. 56 #165b-2, Bogotá, Colombia"
TIENDA D1 BOGOTA VERAGUAS,BOGOTA,2740247,2016/10/04,ACTIVA,2025/03/07,2025,4.6048843,-74.0998972,"Ave Cra 30 #4-41, Bogotá, Colombia"
TIENDA D1 BOGOTA VILLA NUEVA,BOGOTA,2836126,2017/07/04,ACTIVA,2025/03/07,2025,4.7570497,-74.0539646,"Cl. 174a #54C-28, Bogotá, Colombia"
TIENDA D1 BOGOTA VILLA SONIA,BOGOTA,2870257,2017/09/19,ACTIVA,2025/03/07,2025,4.6190975,-74.1816054,"Dg. 56 Bis Sur, Cra. 84a #84a-41 a #1, Bogotá, Colombia"
TIENDA D1 BOJACA,FACATATIVA,140084,2020/03/19,ACTIVA,2025/03/19,2025,4.7326636,-74.3431986,"Cra. 8 #7-38, Bojacá, Cundinamarca, Colombia"
TIENDA D1 BOLARQUI,BUCARAMANGA,9000671460,2024/04/22,ACTIVA,2025/03/28,2025,7.114800499999999,-73.12831609999999,"Cra. 12 #42-40, García Rovira, Bucaramanga, Santander, Colombia"
TIENDA D1 BOLIVAR,MEDELLIN PARA ANTIOQUIA,66670402,2018/09/14,ACTIVA,2025/03/21,2025,5.849569499999999,-76.01848989999999,"a 48-103,, Cl. 49 #481, Cdad. Bolivar, Cd Bolívar, Antioquia, Colombia"
TIENDA D1 BOLIVAR,BUCARAMANGA,9000409595,2018/07/27,ACTIVA,2025/03/21,2025,5.849569499999999,-76.01848989999999,"a 48-103,, Cl. 49 #481, Cdad. Bolivar, Cd Bolívar, Antioquia, Colombia"
TIENDA D1 BOLIVAR VALLE DEL CAUCA,TULUA,102867,2020/10/13,ACTIVA,2025/03/19,2025,4.3370029,-76.18326569999999,"Bolivar, Bolívar, Valle del Cauca, Colombia"
TIENDA D1 BOLIVARIANA,MEDELLIN PARA ANTIOQUIA,50185802,2010/11/08,ACTIVA,2025/03/21,2025,6.2454437,-75.59155609999999,"Cq. 3 #No. 72 - 41, Laureles - Estadio, Medellín, Laureles, Medellín, Antioquia, Colombia"
TIENDA D1 BOMBONA,MEDELLIN PARA ANTIOQUIA,63600502,2017/05/26,ACTIVA,2025/03/21,2025,6.2433792,-75.5624448,"Bomboná #40-2 a 40-98, La Candelaria, Medellín, La Candelaria, Medellín, Antioquia, Colombia"
TIENDA D1 BORA,BUCARAMANGA,9000692139,2025/02/14,ACTIVA,2025/02/14,2025,4.7314422,-74.0502568,"Auto. Norte #14929, Bogotá, Colombia"
TIENDA D1 BOSA BRAZIL,BOGOTA,2702378,2016/06/24,ACTIVA,2025/03/07,2025,4.6287688,-74.18524690000001,"# C-87, Cl. 49c Sur, Bosa, Bogotá, Colombia"
TIENDA D1 BOSA CARBONEL,BOGOTA,3265877,2020/07/28,ACTIVA,2025/03/07,2025,4.6038506,-74.1985813,"Cra. 78c #72C-06 SUR, Bosa, Bogotá, Cundinamarca, Colombia"
TIENDA D1 BOSA CRA 80,BOGOTA,3604920,2022/11/08,ACTIVA,2025/03/07,2025,4.613573199999999,-74.2102656,"Cra. 80i 85b Sur, Bogotá, Colombia"
TIENDA D1 BOSA INDEPENDENCIA,BOGOTA,3219301,2020/02/13,ACTIVA,2025/03/07,2025,4.620068499999999,-74.1974688,"Cl. 71a Sur #87b-69, Bogotá, Colombia"
TIENDA D1 BOSCONIA,VALLEDUPAR,181001,2021/05/10,ACTIVA,2025/03/25,2025,9.9713849,-73.8890122,"Bosconia, Cesar, Colombia"
TIENDA D1 BOSCONIA 2,VALLEDUPAR,198115,2023/02/09,CANCELADA,2024/03/01,2024,9.9713849,-73.8890122,"Bosconia, Cesar, Colombia"
TIENDA D1 BOSQUES DE MARIANA,BOGOTA,3231964,2020/03/09,ACTIVA,2025/03/07,2025,4.7018406,-74.1247078,"Zona 4, Bogotá, Colombia"
TIENDA D1 BOSQUES DE MODELIA,BOGOTA,3933394,2025/03/10,ACTIVA,2025/03/10,2025,4.6678324,-74.1180077,"Cra. 75 #24d 33, Bogotá, Colombia"
TIENDA D1 BOSTON,MEDELLIN PARA ANTIOQUIA,49564302,2010/06/24,ACTIVA,2025/03/21,2025,6.2476547,-75.55552449999999,"Cra 36 A #55-28, La Candelaria, Medellín, La Candelaria, Medellín, Antioquia, Colombia"
TIENDA D1 BRICEÑO,MEDELLIN PARA ANTIOQUIA,77801402,2023/08/10,CANCELADA,2025/03/21,2025,7.1116169,-75.5513058,"carrera 9 #10 25, Briceño, Antioquia, Colombia"
TIENDA D1 BRISAS ALDEA,BOGOTA,3424579,2021/09/06,ACTIVA,2025/03/07,2025,4.6943681,-74.15158009999999,"Cl. 23 #123a-1, Fontibón, Bogotá, Colombia"
TIENDA D1 BRR BUENOS AIRES,BARRANCABERMEJA,137472,2023/09/21,ACTIVA,2025/03/19,2025,4.5794339,-74.0800658,"Dg. 6 Sur #1-17, Bogotá, Colombia"
TIENDA D1 BUENAVENTURA BELLAVISTA,BUENAVENTURA,181938,2018/05/03,ACTIVA,2025/03/10,2025,3.8809634,-77.03357729999999,"Cl. 6 # 36 - 20, Buenaventura, Valle del Cauca, Colombia"
TIENDA D1 BUENAVENTURA CABAL POMBO,BUENAVENTURA,183212,2018/10/02,ACTIVA,2025/03/10,2025,3.8686388,-76.9810667,"Dg. 3 #86a45, Buenaventura, Valle del Cauca, Colombia"
TIENDA D1 BUENAVENTURA CENTENARIO,BUENAVENTURA,192778,2022/04/28,ACTIVA,2025/03/10,2025,3.872654099999999,-76.997699,"Buenaventura, Valle del Cauca, Colombia"
TIENDA D1 BUENAVENTURA EL GALEON,BUENAVENTURA,182216,2018/05/28,ACTIVA,2025/03/10,2025,3.8823271,-77.0153562,"Buenaventura, Valle del Cauca, Colombia"
TIENDA D1 BUENAVENTURA EL MODELO,BUENAVENTURA,181939,2018/05/03,ACTIVA,2025/03/10,2025,3.872654099999999,-76.997699,"Buenaventura, Valle del Cauca, Colombia"
TIENDA D1 BUENAVENTURA JUAN XXIII,BUENAVENTURA,185887,2019/09/04,ACTIVA,2025/03/10,2025,3.8787039,-77.0356784,"Cl. 4 #34-16, Buenaventura, Valle del Cauca, Colombia"
TIENDA D1 BUENAVENTURA MAYOLO,BUENAVENTURA,191384,2021/10/11,CANCELADA,2024/02/22,2024,3.8845208,-77.0690545,"Cl. 6 #12-50, Buenaventura, Valle del Cauca, Colombia"
TIENDA D1 BUENAVENTURA NARANJITO,BUENAVENTURA,183733,2019/01/16,ACTIVA,2025/03/10,2025,3.872654099999999,-76.997699,"Buenaventura, Valle del Cauca, Colombia"
TIENDA D1 BUENAVISTA,MONTERIA,182412,2020/10/13,CANCELADA,2020/10/13,2020,8.2238963,-75.4840187,"Cl. 12 #12-25, Buenavista, Córdoba, Colombia"
TIENDA D1 BUENAVISTA,MONTERIA,188078,2021/05/14,ACTIVA,2025/03/13,2025,8.2238963,-75.4840187,"Cl. 12 #12-25, Buenavista, Córdoba, Colombia"
TIENDA D1 BUENAVISTA SUCRE,MAGANGUE,49805,2021/06/15,ACTIVA,2025/03/10,2025,9.3197231,-74.973478,"Buenavista, Sucre, Colombia"
TIENDA D1 BUENOS AIRES,MEDELLIN PARA ANTIOQUIA,47578902,2009/04/14,ACTIVA,2025/03/21,2025,6.2382921,-75.5536423,"Cl. 46 #29-60, Buenos Aires, Medellín, Buenos Aires, Medellín, Antioquia, Colombia"
TIENDA D1 BUENOS AIRES,BOGOTA,3137441,2019/07/10,ACTIVA,2025/03/07,2025,6.2382921,-75.5536423,"Cl. 46 #29-60, Buenos Aires, Medellín, Buenos Aires, Medellín, Antioquia, Colombia"
TIENDA D1 BUENOS AIRES TRANVIA,MEDELLIN PARA ANTIOQUIA,62745602,2017/02/08,ACTIVA,2025/03/21,2025,6.241303299999999,-75.5529967,"Av. Ayacucho #30-26, Caicedo, Medellín, Buenos Aires, Medellín, Antioquia, Colombia"
TIENDA D1 BUESACO NARIÑO,PASTO,193517,2019/09/05,ACTIVA,2025/03/11,2025,1.3841178,-77.1562897,"Cra. 2 #9-63 a 9-1, Buesaco, Nariño, Colombia"
TIENDA D1 BUGA ALBERGUE,BUGA,53406,2013/07/03,ACTIVA,2025/03/10,2025,3.8883222,-76.2997937,"Cra. 12, Guadalajara de Buga, Valle del Cauca, Colombia"
TIENDA D1 BUGA BASILICA,BUGA,52563,2013/05/07,CANCELADA,2013/09/03,2013,3.9016997,-76.29900649999999,"Cra. 12 #9-45, Guadalajara de Buga, Valle del Cauca, Colombia"
TIENDA D1 BUGA CENTRO,BUGA,51622,2013/01/23,ACTIVA,2025/03/10,2025,3.9016997,-76.29900649999999,"Cra. 12 #9-45, Guadalajara de Buga, Valle del Cauca, Colombia"
TIENDA D1 BUGA EL MOLINO,BUGA,82904,2022/10/06,ACTIVA,2025/03/10,2025,3.8958587,-76.2908753,"Cra. 1 #6-57, Guadalajara de Buga, Valle del Cauca, Colombia"
TIENDA D1 BUGA ESTAMBUL,BUGA,86787,2023/11/02,ACTIVA,2025/03/10,2025,3.8949516,-76.3008825,"Cl 1 #11-82, Guadalajara de Buga, Valle del Cauca, Colombia"
TIENDA D1 BUGA FERIA,BUGA,60531,2015/12/16,ACTIVA,2025/03/10,2025,3.9101129,-76.2925044,"Cl. 21 #9-13, Guadalajara de Buga, Valle del Cauca, Colombia"
TIENDA D1 BUGA SUCRE,BUGA,51855,2013/02/22,CANCELADA,2013/09/03,2013,3.9016997,-76.29900649999999,"Cra. 12 #9-45, Guadalajara de Buga, Valle del Cauca, Colombia"
TIENDA D1 BUGALAGRANDE,TULUA,78040,2013/12/09,ACTIVA,2025/03/11,2025,4.2096678,-76.1573245,"Cl. 3 #4-34, Bugalagrande, Valle del Cauca, Colombia"
TIENDA D1 BURITICA,MEDELLIN PARA ANTIOQUIA,78674702,2024/01/23,ACTIVA,2025/03/21,2025,6.6787027,-75.8112561,"Cra. 9 #9-29, Liborina, Antioquia, Colombia"
TIENDA D1 CABAÑAS,MEDELLIN PARA ANTIOQUIA,54173602,2013/01/18,ACTIVA,2025/03/21,2025,6.3149636,-75.55834349999999,"Cl. 26B #51-15, Vegas De La Cabana, Bello, Antioquia, Colombia"
